,Town,Land,count,lat,lon,coordinates
0,6th October City,Egypt,3,29.9723458,30.9409205,"(29.9723458, 30.9409205)"
1,Aachen,Germany,1,50.776351,6.083862,"(50.776351, 6.083862)"
2,Aalborg,Denmark,3,57.0482206,9.9193939,"(57.0482206, 9.9193939)"
3,Aarhus,Denmark,7,56.1496278,10.2134046,"(56.1496278, 10.2134046)"
4,Abeokuta,Nigeria,1,7.161,3.348,"(7.161, 3.348)"
5,Aberdeen,Scotland,4,57.1482429,-2.0928095,"(57.1482429, -2.0928095)"
6,Abidjan,Ivory Coast,36,5.4091179,-4.0422099,"(5.4091179, -4.0422099)"
7,Abu dhabi,United Arab Emirates,92,23.99764435,53.6439097569213,"(23.99764435, 53.6439097569213)"
8,Abuja,Nigeria,22,9.0643305,7.4892974,"(9.0643305, 7.4892974)"
9,Abymes,Guadeloupe,1,16.2706436,-61.5057749,"(16.2706436, -61.5057749)"
10,Accra,Ghana,34,5.5600141,-0.2057437,"(5.5600141, -0.2057437)"
11,Achna,Cyprus,1,35.0297118,33.7708195,"(35.0297118, 33.7708195)"
12,Adana,Turkey,2,37.003277,35.3261219,"(37.003277, 35.3261219)"
13,Addis Ababa,Ethiopia,87,9.0107934,38.7612525,"(9.0107934, 38.7612525)"
14,Addu City,Maldives,6,-0.6263536,73.1791074705682,"(-0.6263536, 73.1791074705682)"
15,Adelaide,Australia,18,-34.9281805,138.5999312,"(-34.9281805, 138.5999312)"
16,Aden,Yemen,10,12.789585,45.028504,"(12.789585, 45.028504)"
17,Agadir,Morocco,19,30.421163,-9.583076,"(30.421163, -9.583076)"
18,Aguascalientes,Mexico,1,22.0000001,-102.5000001,"(22.0000001, -102.5000001)"
19,Agueda,Portugal,1,40.59463245,-8.41600386680901,"(40.59463245, -8.41600386680901)"
20,Aix-en-Provence,France,2,43.5298424,5.4474738,"(43.5298424, 5.4474738)"
21,Aix-les-Bains,France,1,45.6886292,5.9146362,"(45.6886292, 5.9146362)"
22,Ajaccio,France,1,41.9263991,8.7376029,"(41.9263991, 8.7376029)"
23,Al Ahsa,Saudi Arabia,1,22.5,51.0,"(22.5, 51.0)"
24,Al Ain City,United Arab Emirates,30,24.2258413,55.7474052,"(24.2258413, 55.7474052)"
25,Al Farwaniyah,Kuwait,11,29.24758225,47.9119138303901,"(29.24758225, 47.9119138303901)"
26,Al Jahra,Kuwait,1,29.49849265,47.5441289071887,"(29.49849265, 47.5441289071887)"
27,Al Muharraq,Bahrain,1,26.2465946,50.6164127,"(26.2465946, 50.6164127)"
28,Al Ram,Jordan,1,31.8526218,35.2341867,"(31.8526218, 35.2341867)"
29,Al Rayyan,Qatar,6,25.2929189,51.3962334335276,"(25.2929189, 51.3962334335276)"
30,Al Sharjah,United Arab Emirates,2,25.3197641,55.3861645,"(25.3197641, 55.3861645)"
31,Al Wakrah,Qatar,4,24.9973559,51.4817577367629,"(24.9973559, 51.4817577367629)"
32,Al-Hasa,Saudi Arabia,1,25.429427,49.6219145,"(25.429427, 49.6219145)"
33,Al-Ram,Palestine,4,31.9017292,35.1994152,"(31.9017292, 35.1994152)"
34,Al-Ubayyid,Sudan,2,13.183366,30.222559,"(13.183366, 30.222559)"
35,Alajuela,Costa Rica,4,10.6916755,-84.7561318,"(10.6916755, -84.7561318)"
36,Albacete,Spain,3,38.9890121,-1.8548699,"(38.9890121, -1.8548699)"
37,Albany,New Zealand,4,-36.7237379,174.6967735,"(-36.7237379, 174.6967735)"
38,Albufeira,Portugal,1,37.144524,-8.21458814821803,"(37.144524, -8.21458814821803)"
39,Albuquerque,USA,1,35.0841034,-106.6509851,"(35.0841034, -106.6509851)"
40,Alcochete,Portugal,2,38.7560499,-8.9608437,"(38.7560499, -8.9608437)"
41,Aleppo,Syria,5,36.19924,37.1637253,"(36.19924, 37.1637253)"
42,Alexandria,Egypt,23,31.199004,29.894378,"(31.199004, 29.894378)"
43,Algiers,Algeria,22,28.0000272,2.9999825,"(28.0000272, 2.9999825)"
44,Alicante,Spain,3,38.353738,-0.4901846,"(38.353738, -0.4901846)"
45,Almada,Portugal,1,38.6803861,-9.1559563,"(38.6803861, -9.1559563)"
46,Almaty,Kazakhstan,25,43.2363924,76.9457275,"(43.2363924, 76.9457275)"
47,Almeria,Spain,1,36.8414197,-2.4628135,"(36.8414197, -2.4628135)"
48,Altach,Austria,2,47.3544962,9.6518728,"(47.3544962, 9.6518728)"
49,Altenkirchen,Germany,1,54.6360021,13.3439199,"(54.6360021, 13.3439199)"
50,Alverca Do Ribatejo,Portugal,1,38.9049525,-9.04601801313072,"(38.9049525, -9.04601801313072)"
51,Alzira,Spain,2,39.1512424,-0.4346133,"(39.1512424, -0.4346133)"
52,Amadora,Portugal,2,38.7595162,-9.22367700946013,"(38.7595162, -9.22367700946013)"
53,Ambato,Ecuador,2,-1.29038825,-78.7353231113364,"(-1.29038825, -78.7353231113364)"
54,Amiens,France,2,49.8941708,2.2956951,"(49.8941708, 2.2956951)"
55,Amman,Jordan,122,31.9515694,35.9239625,"(31.9515694, 35.9239625)"
56,Amsterdam,Netherlands,50,52.3745403,4.89797550561798,"(52.3745403, 4.89797550561798)"
57,Ancona,Italy,1,43.6170137,13.5170982,"(43.6170137, 13.5170982)"
58,Andorra la Vella,Andorra,44,42.5069391,1.5212467,"(42.5069391, 1.5212467)"
59,Anif,Austria,1,47.7497338,13.0638706,"(47.7497338, 13.0638706)"
60,Ankara,Turkey,2,39.9215219,32.8537929,"(39.9215219, 32.8537929)"
61,Annaba,Algeria,5,36.8970249,7.7460806,"(36.8970249, 7.7460806)"
62,Ansan,South Korea,1,37.3217152,126.8308604,"(37.3217152, 126.8308604)"
63,Anshan,China,1,40.78195365,122.789233036441,"(40.78195365, 122.789233036441)"
64,Antalya,Turkey,35,36.9009641,30.6954846,"(36.9009641, 30.6954846)"
65,Antananarivo,Madagascar,27,-18.9100122,47.5255809,"(-18.9100122, 47.5255809)"
66,Antigua,Guatemala,2,14.5566211,-90.7338758,"(14.5566211, -90.7338758)"
67,Antofagasta,Chile,4,-23.6463741,-70.3980033,"(-23.6463741, -70.3980033)"
68,Antwerp,Belgium,2,51.2211097,4.3997081,"(51.2211097, 4.3997081)"
69,Apia,Samoa,36,-13.8343691,-171.7692793,"(-13.8343691, -171.7692793)"
70,Ar Rayyan,Qatar,5,25.2929189,51.3962334335276,"(25.2929189, 51.3962334335276)"
71,Arbil,Iraq,4,36.37662015,44.1661820118049,"(36.37662015, 44.1661820118049)"
72,Arequipa,Peru,6,-16.3988645,-71.5369607,"(-16.3988645, -71.5369607)"
73,Arica,Chile,1,-18.478518,-70.3210596,"(-18.478518, -70.3210596)"
74,Arles,France,1,43.6776223,4.6309653,"(43.6776223, 4.6309653)"
75,Arlington,USA,9,32.701939,-97.1057149357776,"(32.701939, -97.1057149357776)"
76,Arnhem,Netherlands,1,52.0056642,5.87623450776413,"(52.0056642, 5.87623450776413)"
77,Arusha,Tanzania,2,-3.427534,36.7085848184899,"(-3.427534, 36.7085848184899)"
78,Ashgabat,Turkmenistan,17,37.9396678,58.3874263,"(37.9396678, 58.3874263)"
79,Asmara,Eritrea,11,15.3389667,38.9326763,"(15.3389667, 38.9326763)"
80,Astana,Kazakhstan,26,51.15092055,71.4388595154859,"(51.15092055, 71.4388595154859)"
81,Asuncion,Paraguay,44,-25.2959916,-57.6311196,"(-25.2959916, -57.6311196)"
82,Aswan,Egypt,5,24.091071,32.897306,"(24.091071, 32.897306)"
83,Atele,Tonga,8,-21.1810053,-175.2262266,"(-21.1810053, -175.2262266)"
84,Athens,Greece,8,37.9841493,23.7279843,"(37.9841493, 23.7279843)"
85,Atlanta,USA,11,33.7490987,-84.3901849,"(33.7490987, -84.3901849)"
86,Atteridgeville,South Africa,10,-25.771389,28.073611,"(-25.771389, 28.073611)"
87,Aubervilliers,France,1,48.9146078,2.3821895,"(48.9146078, 2.3821895)"
88,Auckland,New Zealand,5,-36.8534665,174.7655514,"(-36.8534665, 174.7655514)"
89,Augsburg,Germany,1,48.3668041,10.8986971,"(48.3668041, 10.8986971)"
90,Auxerre,France,1,47.7954001,3.58452,"(47.7954001, 3.58452)"
91,Aveiro,Portugal,8,40.640496,-8.6537841,"(40.640496, -8.6537841)"
92,Avignon,France,1,43.9493143,4.8060329,"(43.9493143, 4.8060329)"
93,Awassa,Ethiopia,8,7.0476,38.49326,"(7.0476, 38.49326)"
94,Ayutthaya,Thailand,2,14.3560372,100.5722073,"(14.3560372, 100.5722073)"
95,Ba,Fiji,2,-17.5457103,177.6840732,"(-17.5457103, 177.6840732)"
96,Babahoyo,Ecuador,1,-1.8009022,-79.5338214,"(-1.8009022, -79.5338214)"
97,Bacolet,Trinidad and Tobago,7,11.1754352,-60.7301632155133,"(11.1754352, -60.7301632155133)"
98,Bacolod,Philippines,16,10.6762836,122.9513786,"(10.6762836, 122.9513786)"
99,Bad Erlach,Austria,2,47.7084896,16.2237554787705,"(47.7084896, 16.2237554787705)"
100,Bad Waltersdorf,Austria,1,47.168506,16.0088882,"(47.168506, 16.0088882)"
101,Badajoz,Spain,1,38.8768616,-6.9733409,"(38.8768616, -6.9733409)"
102,Baghdad,Iraq,3,33.3024309,44.3787992,"(33.3024309, 44.3787992)"
103,Bahir Dar,Ethiopia,7,11.5904154,37.3884007,"(11.5904154, 37.3884007)"
104,Bakau,Gambia,18,13.477453,-16.6779085,"(13.477453, -16.6779085)"
105,Baku,Azerbaijan,53,40.3759646,49.8325808,"(40.3759646, 49.8325808)"
106,Balkanabat,Turkmenistan,2,39.508904,54.3631062,"(39.508904, 54.3631062)"
107,Ballarat,Australia,1,-37.5622632,143.8607215,"(-37.5622632, 143.8607215)"
108,Baltimore,USA,4,39.2908816,-76.610759,"(39.2908816, -76.610759)"
109,Bamako,Mali,43,12.60506605,-7.98651205631745,"(12.60506605, -7.98651205631745)"
110,Bandar Seri Begawan,Brunei,2,4.8895453,114.9417574,"(4.8895453, 114.9417574)"
111,Bandung,Indonesia,2,-6.9344694,107.6049539,"(-6.9344694, 107.6049539)"
112,Bangalore,India,6,12.9791198,77.5912997,"(12.9791198, 77.5912997)"
113,Bangkok,Thailand,133,13.7538929,100.8160803,"(13.7538929, 100.8160803)"
114,Bangui,Central African Republic,13,4.3907153,18.5509126,"(4.3907153, 18.5509126)"
115,Banjul,Gambia,9,13.45535,-16.575646,"(13.45535, -16.575646)"
116,Barcelona,Spain,10,41.3828939,2.1774322,"(41.3828939, 2.1774322)"
117,Barcelos,Portugal,1,41.5314496,-8.6192306,"(41.5314496, -8.6192306)"
118,Bari,Italy,4,41.1257843,16.8620293,"(41.1257843, 16.8620293)"
119,Barinas,Venezuela,5,8.6375159,-70.2304978,"(8.6375159, -70.2304978)"
120,Barotac,Philippines,3,11.06283335,122.862043673329,"(11.06283335, 122.862043673329)"
121,Barquisimeto,Venezuela,6,10.0740372,-69.3215667,"(10.0740372, -69.3215667)"
122,Barranquilla,Colombia,28,11.01184845,-74.8086460830206,"(11.01184845, -74.8086460830206)"
123,Barysaw,Belarus,5,54.2240665,28.5117849,"(54.2240665, 28.5117849)"
124,Basel,Suisse,34,47.5581077,7.5878261,"(47.5581077, 7.5878261)"
125,Basra,Iraq,7,30.4952367,47.8090981,"(30.4952367, 47.8090981)"
126,Basse-Terre,Guadeloupe,41,16.15422725,-61.6778124432016,"(16.15422725, -61.6778124432016)"
127,Basseterre,St. Kitts and Nevis,9,17.2960919,-62.722301,"(17.2960919, -62.722301)"
128,Bastia Umbra,Italy,1,43.0677554,12.5495816,"(43.0677554, 12.5495816)"
129,Bata,Equatorial Guinea,28,1.8650897,9.768665,"(1.8650897, 9.768665)"
130,Bayamon,Puerto Rico,22,18.34495825,-66.1683740026913,"(18.34495825, -66.1683740026913)"
131,Bayreuth,Germany,1,49.9427202,11.5763079,"(49.9427202, 11.5763079)"
132,Beauvais,France,4,49.4300997,2.0823355,"(49.4300997, 2.0823355)"
133,Beijing,China,17,39.9059631,116.391248,"(39.9059631, 116.391248)"
134,Beira,Mozambique,3,-19.828707,34.841782,"(-19.828707, 34.841782)"
135,Beirut,Lebanon,49,33.88922645,35.5025733017293,"(33.88922645, 35.5025733017293)"
136,Bekasi,Indonesia,3,-6.2349858,106.9945444,"(-6.2349858, 106.9945444)"
137,Belchatow,Poland,1,51.3650409,19.3684001,"(51.3650409, 19.3684001)"
138,Belek,Turkey,6,36.8633459,31.0578184,"(36.8633459, 31.0578184)"
139,Belem,Brazil,2,-1.45056,-48.4682453,"(-1.45056, -48.4682453)"
140,Belfast,Northern Ireland,62,54.5969869,-5.9300992,"(54.5969869, -5.9300992)"
141,Belgrade,Serbia,43,44.8178131,20.4568974,"(44.8178131, 20.4568974)"
142,Belize City,Belize,2,17.4952119,-88.2017441,"(17.4952119, -88.2017441)"
143,Bellevue,Mauritius,11,-20.2759451,57.5703566,"(-20.2759451, 57.5703566)"
144,Belmopan,Belize,9,17.250199,-88.770018,"(17.250199, -88.770018)"
145,Belo Horizonte,Brazil,14,-19.9227318,-43.9450948,"(-19.9227318, -43.9450948)"
146,Benghazi,Libya,1,32.1288331,20.0817204,"(32.1288331, 20.0817204)"
147,Benguela,Angola,12,-12.5790048,13.4037117,"(-12.5790048, 13.4037117)"
148,Benin City,Benin,1,9.5293472,2.2584408,"(9.5293472, 2.2584408)"
149,Berbice,Guyana,1,6.3993434,-58.2424599,"(6.3993434, -58.2424599)"
150,Bergamo,Italy,3,45.6944947,9.6698727,"(45.6944947, 9.6698727)"
151,Berlin,Germany,12,52.5170365,13.3888599,"(52.5170365, 13.3888599)"
152,Berne,Suisse,11,46.9482713,7.4514512,"(46.9482713, 7.4514512)"
153,Biel,Suisse,1,47.1402077,7.2439029,"(47.1402077, 7.2439029)"
154,Bielefeld,Germany,2,52.010877,8.540868,"(52.010877, 8.540868)"
155,Birmingham,England,2,52.4776875,-1.8948516,"(52.4776875, -1.8948516)"
156,Bishan,Singapore,1,1.3519117,103.8489625,"(1.3519117, 103.8489625)"
157,Bishkek,Kyrgyzstan,28,42.8797576,74.5866877214267,"(42.8797576, 74.5866877214267)"
158,Bissau,Guinea-Bissau,19,11.861324,-15.583055,"(11.861324, -15.583055)"
159,Bitam,Gabon,1,2.0794034,11.4944949,"(2.0794034, 11.4944949)"
160,Bizerte,Tunisia,6,37.2732415,9.8713665,"(37.2732415, 9.8713665)"
161,Black Rock,Trinidad and Tobago,2,11.2053014,-60.7816697,"(11.2053014, -60.7816697)"
162,Blairmont,Dominica,1,15.4113138,-61.3653618,"(15.4113138, -61.3653618)"
163,Blantyre,Malawi,48,-15.7862543,35.0035694,"(-15.7862543, 35.0035694)"
164,Blida,Algeria,33,36.4701645,2.8287985,"(36.4701645, 2.8287985)"
165,Bloemfontein,South Africa,22,-29.116395,26.215496,"(-29.116395, 26.215496)"
166,Blois,France,1,47.5876861,1.3337639,"(47.5876861, 1.3337639)"
167,Boca Raton,USA,3,26.3586885,-80.0830984,"(26.3586885, -80.0830984)"
168,Bocaue,Philippines,5,14.7996399,120.9264574,"(14.7996399, 120.9264574)"
169,Bochum,Germany,2,51.4818111,7.2196635,"(51.4818111, 7.2196635)"
170,Bogor,Indonesia,3,-6.5962986,106.7972421,"(-6.5962986, 106.7972421)"
171,Bogota,Colombia,9,4.5980772,-74.0761028,"(4.5980772, -74.0761028)"
172,Bologhine,Algeria,1,36.8046778,3.0426168,"(36.8046778, 3.0426168)"
173,Bologna,Italy,2,44.4936714,11.3430347,"(44.4936714, 11.3430347)"
174,Bondoufle,France,2,48.6149736,2.3835366,"(48.6149736, 2.3835366)"
175,Bordeaux,France,6,44.841225,-0.5800364,"(44.841225, -0.5800364)"
176,Borg el Arab,Egypt,6,30.90333625,29.5528427076802,"(30.90333625, 29.5528427076802)"
177,Borisov,Belarus,8,54.2240665,28.5117849,"(54.2240665, 28.5117849)"
178,Boston,USA,19,42.3604823,-71.0595678,"(42.3604823, -71.0595678)"
179,Bouake,Ivory Coast,6,7.6906058,-5.0298408,"(7.6906058, -5.0298408)"
180,Boulari,New Caledonia,8,-22.2284926,166.5205659,"(-22.2284926, 166.5205659)"
181,Braga,Portugal,8,41.5510583,-8.4280045,"(41.5510583, -8.4280045)"
182,Brasilia,Brazil,10,-10.3333333,-53.2,"(-10.3333333, -53.2)"
183,Bratislava,Slovakia,30,48.1359085,17.1597440625,"(48.1359085, 17.1597440625)"
184,Brazzaville,Congo,42,-4.2694407,15.2712256,"(-4.2694407, 15.2712256)"
185,Bremen,Germany,3,53.0758196,8.8071646,"(53.0758196, 8.8071646)"
186,Brentford,England,3,51.4863958,-0.3216623,"(51.4863958, -0.3216623)"
187,Brest,Belarus,1,52.093751,23.6851851,"(52.093751, 23.6851851)"
188,Bridgetown,Barbados,52,13.0977832,-59.6184184,"(13.0977832, -59.6184184)"
189,Bridgeview,USA,4,41.7500323,-87.8042216,"(41.7500323, -87.8042216)"
190,Brisbane,Australia,13,-27.4689682,153.0234991,"(-27.4689682, 153.0234991)"
191,Brondby,Denmark,5,55.644111,12.4217135,"(55.644111, 12.4217135)"
192,Bruges,Belgium,2,51.2085526,3.226772,"(51.2085526, 3.226772)"
193,Brussels,Belgium,65,50.8465573,4.351697,"(50.8465573, 4.351697)"
194,Brøndby,Denmark,1,55.644111,12.4217135,"(55.644111, 12.4217135)"
195,Bucaramanga,Colombia,1,7.1114611,-73.1172869,"(7.1114611, -73.1172869)"
196,Bucharest,Romania,38,44.4361414,26.1027202,"(44.4361414, 26.1027202)"
197,Bucheon,South Korea,1,37.5014422,126.7660139,"(37.5014422, 126.7660139)"
198,Budapest,Hungary,69,47.4983815,19.0404707,"(47.4983815, 19.0404707)"
199,Buenos Aires,Argentina,38,-34.6075616,-58.437076,"(-34.6075616, -58.437076)"
200,Bujumbura,Burundi,29,-3.3638125,29.3675028,"(-3.3638125, 29.3675028)"
201,Bulacan,Philippines,4,15.0,121.083333,"(15.0, 121.083333)"
202,Bulawayo,Zimbabwe,12,-20.1053948,28.5426856,"(-20.1053948, 28.5426856)"
203,Burgas,Bulgaria,1,42.50651405,27.3537499392833,"(42.50651405, 27.3537499392833)"
204,Burghausen,Germany,2,48.1689863,12.8304816,"(48.1689863, 12.8304816)"
205,Buriram,Thailand,4,14.6107101,102.6453162,"(14.6107101, 102.6453162)"
206,Bursa,Turkey,2,40.1826036,29.0675655,"(40.1826036, 29.0675655)"
207,Burton Upon Trent,England,1,52.8015803,-1.6305633,"(52.8015803, -1.6305633)"
208,Busan,South Korea,2,35.1799528,129.0752365,"(35.1799528, 129.0752365)"
209,Bushbuckridge,South Africa,1,-24.83356,31.067731,"(-24.83356, 31.067731)"
210,Butare,Rwanda,7,-2.5431564,29.1597013917382,"(-2.5431564, 29.1597013917382)"
211,Bydgoszcz,Poland,5,53.12974625,18.0293696585349,"(53.12974625, 18.0293696585349)"
212,Cabinda,Angola,7,-5.056395,12.3211749,"(-5.056395, 12.3211749)"
213,Cadiz,Spain,2,36.5298292,-6.2925679,"(36.5298292, -6.2925679)"
214,Cagliari,Italy,1,39.2169525,9.1128513,"(39.2169525, 9.1128513)"
215,Cairo,Egypt,93,30.048819,31.243666,"(30.048819, 31.243666)"
216,Calabar,Nigeria,7,4.9795999,8.3373597,"(4.9795999, 8.3373597)"
217,Calama,Chile,1,-22.4623917,-68.9272181,"(-22.4623917, -68.9272181)"
218,Calcutta,India,6,22.5677459,88.3476023,"(22.5677459, 88.3476023)"
219,Cali,Colombia,1,3.4319329,-76.5113048,"(3.4319329, -76.5113048)"
220,Campo Grande,Brazil,1,-20.4640173,-54.6162947,"(-20.4640173, -54.6162947)"
221,Campobasso,Italy,1,41.5597935,14.6602725,"(41.5597935, 14.6602725)"
222,Canberra,Australia,11,-35.2975906,149.1012676,"(-35.2975906, 149.1012676)"
223,Cannes,France,2,43.5515198,7.0134418,"(43.5515198, 7.0134418)"
224,Cap Haitien,Haiti,1,19.7595236,-72.2008068,"(19.7595236, -72.2008068)"
225,Cape Town,South Africa,31,-33.928992,18.417396,"(-33.928992, 18.417396)"
226,Caracas,Venezuela,8,10.506098,-66.9146017,"(10.506098, -66.9146017)"
227,Cardiff,Wales,51,51.4816546,-3.1791934,"(51.4816546, -3.1791934)"
228,Carouge,Suisse,7,46.1846691,6.1396839,"(46.1846691, 6.1396839)"
229,Carson/Los Angeles,USA,17,33.8322043,-118.2517547,"(33.8322043, -118.2517547)"
230,Carson/Los Angeles ,USA,1,33.8322043,-118.2517547,"(33.8322043, -118.2517547)"
231,Cary,USA,4,35.7882973,-78.7811925,"(35.7882973, -78.7811925)"
232,Casablanca,Morocco,39,33.5950627,-7.6187768,"(33.5950627, -7.6187768)"
233,Castries,St. Lucia,3,14.0095966,-60.9902359,"(14.0095966, -60.9902359)"
234,Cave Hill,Barbados,1,13.1354212,-59.6284343,"(13.1354212, -59.6284343)"
235,Cebu City,Philippines,1,10.3090298,123.8930839,"(10.3090298, 123.8930839)"
236,Celje,Slovenia,17,46.2309234,15.2659932,"(46.2309234, 15.2659932)"
237,Cesena,Italy,1,44.136352,12.2422442,"(44.136352, 12.2422442)"
238,Ceske Budejovice,Czech Republic,1,48.9747357,14.474285,"(48.9747357, 14.474285)"
239,Chai Wan,Hong Kong,1,22.2656067,114.2379644,"(22.2656067, 114.2379644)"
240,Changsha,China,9,28.1979483,112.97133,"(28.1979483, 112.97133)"
241,Chantilly,France,1,49.1939579,2.4632567,"(49.1939579, 2.4632567)"
242,Charleroi,Belgium,1,50.4120332,4.4436244,"(50.4120332, 4.4436244)"
243,Charlotte,USA,5,35.2270869,-80.8431268,"(35.2270869, -80.8431268)"
244,Charlotte Amalie,US Virgin Islands,8,18.341137,-64.932789,"(18.341137, -64.932789)"
245,Chateauroux,France,1,46.8047,1.6957099,"(46.8047, 1.6957099)"
246,Chattanooga,USA,1,35.0456297,-85.3096801,"(35.0456297, -85.3096801)"
247,Chaves,Portugal,1,41.7411672,-7.4721312,"(41.7411672, -7.4721312)"
248,Chengdu,China,9,30.6765553,104.0612783,"(30.6765553, 104.0612783)"
249,Chennai,India,1,13.0801721,80.2838331,"(13.0801721, 80.2838331)"
250,Cheonan,South Korea,3,36.8150283,127.1140654,"(36.8150283, 127.1140654)"
251,Chester,USA,7,39.849557,-75.3557458,"(39.849557, -75.3557458)"
252,Cheung Sha Wan,Hong Kong,1,22.2330795,114.0044574,"(22.2330795, 114.0044574)"
253,Chiangmai,Thailand,5,18.7905618,98.9880909,"(18.7905618, 98.9880909)"
254,Chicago,USA,28,41.8755546,-87.6244212,"(41.8755546, -87.6244212)"
255,Chiclayo,Peru,5,-6.766667,-79.85,"(-6.766667, -79.85)"
256,Chililabombwe,Zambia,11,-12.3680056,27.8350811,"(-12.3680056, 27.8350811)"
257,Chillan,Chile,1,-36.6066616,-72.1033194,"(-36.6066616, -72.1033194)"
258,Chingola,Zambia,3,-12.5474926,27.8600422,"(-12.5474926, 27.8600422)"
259,Chisinau,Moldova,42,47.0122737,28.8605936,"(47.0122737, 28.8605936)"
260,Chittagong,Bangladesh,15,22.3307998,91.8412863,"(22.3307998, 91.8412863)"
261,Chofu,Japan,1,35.660036,139.554815,"(35.660036, 139.554815)"
262,Chonburi,Thailand,1,13.1857117,101.1210777,"(13.1857117, 101.1210777)"
263,Chongqing,China,15,29.5585712,106.5492822,"(29.5585712, 106.5492822)"
264,Chorzow,Poland,12,50.2885563,18.9704425309351,"(50.2885563, 18.9704425309351)"
265,Christchurch,New Zealand,2,-43.530955,172.6366455,"(-43.530955, 172.6366455)"
266,Ciudad Guayana,Venezuela,3,8.3223763,-62.6896622,"(8.3223763, -62.6896622)"
267,Ciudad de Guatemala,Guatemala,1,14.6417889,-90.5132239,"(14.6417889, -90.5132239)"
268,Ciudad del Este,Paraguay,2,-25.5169015,-54.6168645,"(-25.5169015, -54.6168645)"
269,Clairfontaine,France,1,49.9824076,3.9897485,"(49.9824076, 3.9897485)"
270,Clermont-Ferrand,France,1,45.7774551,3.0819427,"(45.7774551, 3.0819427)"
271,Cleveland,USA,3,41.5051613,-81.6934446,"(41.5051613, -81.6934446)"
272,Cluj,Romania,6,46.7693367,23.5900604,"(46.7693367, 23.5900604)"
273,Cochabamba,Bolivia,1,-17.3935853,-66.1569588,"(-17.3935853, -66.1569588)"
274,Coimbra,Portugal,7,40.2109801,-8.4292057,"(40.2109801, -8.4292057)"
275,Cologne,Germany,14,50.938361,6.959974,"(50.938361, 6.959974)"
276,Colombes,France,4,48.922788,2.2543577,"(48.922788, 2.2543577)"
277,Colombo,Sri Lanka,40,6.9218124,79.8655608840961,"(6.9218124, 79.8655608840961)"
278,Colon,Honduras,2,13.466018,-86.8620492,"(13.466018, -86.8620492)"
279,Columbus,USA,11,39.9622601,-83.0007065,"(39.9622601, -83.0007065)"
280,Commerce City,USA,3,39.8389525,-104.922045785116,"(39.8389525, -104.922045785116)"
281,Como,Italy,1,45.81082,9.086044,"(45.81082, 9.086044)"
282,Compigne,France,1,49.4179497,2.8263171,"(49.4179497, 2.8263171)"
283,Conakry,Guinea,42,9.5170602,-13.6998434,"(9.5170602, -13.6998434)"
284,Concepcion,Chile,5,-36.8270169,-73.0503189,"(-36.8270169, -73.0503189)"
285,Constanta,Romania,8,44.1724166,28.6208196629799,"(44.1724166, 28.6208196629799)"
286,Constantine,Algeria,3,36.364519,6.60826,"(36.364519, 6.60826)"
287,Copenhagen,Denmark,53,55.6867243,12.5700724,"(55.6867243, 12.5700724)"
288,Coquimbo,Chile,1,-29.9531138,-71.3380213,"(-29.9531138, -71.3380213)"
289,Cordoba,Argentina,9,-32.0967361,-63.7940923,"(-32.0967361, -63.7940923)"
290,Cork,Ireland,1,51.8979282,-8.4705806,"(51.8979282, -8.4705806)"
291,Cornella de Llobregat,Spain,2,41.355724,2.0706225,"(41.355724, 2.0706225)"
292,Cotonou,Benin,39,6.3676953,2.4252507,"(6.3676953, 2.4252507)"
293,Couva,Trinidad and Tobago,21,10.4223291,-61.458708,"(10.4223291, -61.458708)"
294,Covilha,Portugal,2,40.26586015,-7.53608382632971,"(40.26586015, -7.53608382632971)"
295,Coyoacan,Mexico,1,19.32804005,-99.1510634069359,"(19.32804005, -99.1510634069359)"
296,Craiova,Romania,3,44.3190159,23.7965614,"(44.3190159, 23.7965614)"
297,Creteil,France,2,48.7830727,2.4518371,"(48.7830727, 2.4518371)"
298,Crewe,England,1,53.0996153,-2.4414627,"(53.0996153, -2.4414627)"
299,Cucuta,Colombia,1,7.8971458,-72.5080387,"(7.8971458, -72.5080387)"
300,Cuenca,Ecuador,1,-2.8669955,-79.1943490497429,"(-2.8669955, -79.1943490497429)"
301,Cuiaba,Brazil,4,-15.5986686,-56.0991301,"(-15.5986686, -56.0991301)"
302,Culiacan,Mexico,1,24.8015732,-107.3936301,"(24.8015732, -107.3936301)"
303,Curacao,Curacao,1,12.21340415,-69.0408367569724,"(12.21340415, -69.0408367569724)"
304,Curepipe,Mauritius,22,-20.3150516,57.5211497,"(-20.3150516, 57.5211497)"
305,Curitiba,Brazil,5,-25.4295963,-49.2712724,"(-25.4295963, -49.2712724)"
306,Cusco,Peru,1,-12.5,-72.5,"(-12.5, -72.5)"
307,Cutral Co,Argentina,1,-38.9380487,-69.2293719,"(-38.9380487, -69.2293719)"
308,Cádiz,Spain,1,36.5298292,-6.2925679,"(36.5298292, -6.2925679)"
309,DI_sseldorf,Germany,8,51.6995307,7.6506787,"(51.6995307, 7.6506787)"
310,Daegu,South Korea,3,35.8494916,128.5599518,"(35.8494916, 128.5599518)"
311,Daejeon,South Korea,6,36.3496963,127.384902,"(36.3496963, 127.384902)"
312,Dakar,Senegal,45,14.693425,-17.447938,"(14.693425, -17.447938)"
313,Dalian,China,1,38.920716,121.6388678,"(38.920716, 121.6388678)"
314,Dallas,USA,9,32.7762719,-96.7968559,"(32.7762719, -96.7968559)"
315,Damascus,Syria,26,33.5130695,36.3095814,"(33.5130695, 36.3095814)"
316,Dammam,Saudi Arabia,19,26.4367824,50.1039991,"(26.4367824, 50.1039991)"
317,Dar es Salaam,Tanzania,118,-6.8142737,39.2803756,"(-6.8142737, 39.2803756)"
318,Dasoguz,Turkmenistan,2,41.3862117,58.5586047,"(41.3862117, 58.5586047)"
319,Debrecen,Hungary,1,47.531399,21.6259782,"(47.531399, 21.6259782)"
320,Den Haag,Netherlands,2,52.07494555,4.26968022053645,"(52.07494555, 4.26968022053645)"
321,Denizli,Turkey,1,37.7734833,29.0873894,"(37.7734833, 29.0873894)"
322,Denver,USA,8,39.7391428,-104.984696,"(39.7391428, -104.984696)"
323,Derby,England,1,52.9212617,-1.4761491,"(52.9212617, -1.4761491)"
324,Detroit,USA,1,42.3486635,-83.0567375,"(42.3486635, -83.0567375)"
325,Dhaka,Bangladesh,75,23.7593572,90.3788136,"(23.7593572, 90.3788136)"
326,Dieppe,France,1,49.9246182,1.0791444,"(49.9246182, 1.0791444)"
327,Dili,Timor-Leste,4,-8.5536809,125.5784093,"(-8.5536809, 125.5784093)"
328,Diriamba,Nicaragua,4,11.8578955,-86.2395208,"(11.8578955, -86.2395208)"
329,Djerba,Tunisia,1,33.77326425,10.8857558639054,"(33.77326425, 10.8857558639054)"
330,Djibouti,Djibouti,14,11.85677545,42.7577845199437,"(11.85677545, 42.7577845199437)"
331,Dnepropetrovsk,Ukraine,3,48.4680221,35.0417711,"(48.4680221, 35.0417711)"
332,Doha,Qatar,235,25.2856329,51.5264162,"(25.2856329, 51.5264162)"
333,Dokha,Yemen,1,16.3471243,47.8915271,"(16.3471243, 47.8915271)"
334,Dolisie,Congo,1,-4.2005398,12.6791573,"(-4.2005398, 12.6791573)"
335,Domzale,Slovenia,1,46.1394296,14.5944553,"(46.1394296, 14.5944553)"
336,Donetsk,Ukraine,9,48.0158753,37.8013407,"(48.0158753, 37.8013407)"
337,Dornbirn,Austria,1,47.413631,9.7423875,"(47.413631, 9.7423875)"
338,Dortmund,Germany,14,51.5142273,7.4652789,"(51.5142273, 7.4652789)"
339,Dreux,France,1,48.7360474,1.3708971,"(48.7360474, 1.3708971)"
340,Dubai,United Arab Emirates,88,25.0750095,55.1887608818332,"(25.0750095, 55.1887608818332)"
341,Dublin,Ireland,92,53.3497645,-6.2602732,"(53.3497645, -6.2602732)"
342,Dubnica nad Vahom,Slovakia,1,48.9574049,18.1662967,"(48.9574049, 18.1662967)"
343,Duisburg,Germany,3,51.434999,6.759562,"(51.434999, 6.759562)"
344,Dundo,Angola,3,-7.3749148,20.8337256,"(-7.3749148, 20.8337256)"
345,Dunedin,New Zealand,1,-45.8739282,170.503488,"(-45.8739282, 170.503488)"
346,Durban,South Africa,33,-29.861825,31.009909,"(-29.861825, 31.009909)"
347,Durres,Albania,2,41.3188294,19.4451631,"(41.3188294, 19.4451631)"
348,Dushanbe,Tajikistan,27,38.5425835,68.8152131865304,"(38.5425835, 68.8152131865304)"
349,Dusseldorf,Germany,1,51.2254018,6.7763137,"(51.2254018, 6.7763137)"
350,East Hartford,USA,8,41.7623342,-72.6204092070236,"(41.7623342, -72.6204092070236)"
351,East London,South Africa,3,-33.0191604,27.8998573,"(-33.0191604, 27.8998573)"
352,East Rutherford,USA,12,40.833989,-74.0970865,"(40.833989, -74.0970865)"
353,Ebebiyn,Gabon,7,-0.8999695,11.6899699,"(-0.8999695, 11.6899699)"
354,Edinburgh,Scotland,7,55.9496416,-3.1902352,"(55.9496416, -3.1902352)"
355,Edmonton,Canada,3,53.535411,-113.507996,"(53.535411, -113.507996)"
356,Eindhoven,Netherlands,13,51.44855695,5.45012252185714,"(51.44855695, 5.45012252185714)"
357,Ekaterinburg,Russia,4,56.839104,60.60825,"(56.839104, 60.60825)"
358,El Gouna,Egypt,2,27.398898,33.674287,"(27.398898, 33.674287)"
359,El Jadida,Morocco,2,33.2433309,-8.49884,"(33.2433309, -8.49884)"
360,Elbasan,Albania,9,41.1105874,20.0794072,"(41.1105874, 20.0794072)"
361,Elche,Spain,3,38.2653181,-0.6988488,"(38.2653181, -0.6988488)"
362,Empoli,Italy,1,43.7194884,10.9458556,"(43.7194884, 10.9458556)"
363,Enschede,Netherlands,1,52.22336325,6.87059566409799,"(52.22336325, 6.87059566409799)"
364,Esbjerg,Denmark,2,55.4664892,8.4520751,"(55.4664892, 8.4520751)"
365,Eschen-Mauren,Liechtenstein,1,47.210988,9.5282018,"(47.210988, 9.5282018)"
366,Eskisehir,Turkey,3,39.7666813,30.5255947,"(39.7666813, 30.5255947)"
367,Esteli,Nicaragua,3,13.0900805,-86.3546423,"(13.0900805, -86.3546423)"
368,Estepona,Spain,2,36.4268068,-5.1468484,"(36.4268068, -5.1468484)"
369,Estoril,Portugal,3,38.7042261,-9.3983152,"(38.7042261, -9.3983152)"
370,Evian-les-Bains,France,1,46.400979,6.5897931,"(46.400979, 6.5897931)"
371,Evora,Portugal,1,38.5707742,-7.9092808,"(38.5707742, -7.9092808)"
372,Evreux,France,1,49.0183639,1.1375865,"(49.0183639, 1.1375865)"
373,Evry-Bondoufle,France,2,48.6171777,2.3835539,"(48.6171777, 2.3835539)"
374,Falmouth,Jamaica,4,18.4929078,-77.6574376,"(18.4929078, -77.6574376)"
375,Faro,Portugal,11,37.0537571,-7.93193661699148,"(37.0537571, -7.93193661699148)"
376,Faro-loule,Portugal,5,37.1410058,-8.0232894,"(37.1410058, -8.0232894)"
377,Felcsút,Hungary,1,47.4545349,18.5862386,"(47.4545349, 18.5862386)"
378,Fes,Morocco,2,34.0346534,-5.0161926,"(34.0346534, -5.0161926)"
379,Florence,Italy,6,43.7698712,11.2555757,"(43.7698712, 11.2555757)"
380,Fort Lauderdale,USA,27,26.1223084,-80.1433786,"(26.1223084, -80.1433786)"
381,Fort Pierce,USA,1,27.4467056,-80.3256056,"(27.4467056, -80.3256056)"
382,Fort-de-France,Martinique,16,14.6368275,-61.0157355341703,"(14.6368275, -61.0157355341703)"
383,Fortaleza,Brazil,10,-3.7304512,-38.5217989,"(-3.7304512, -38.5217989)"
384,Foshan,China,1,23.0247687,113.1146335,"(23.0247687, 113.1146335)"
385,Foxboro,USA,12,46.4985528,-92.2879727,"(46.4985528, -92.2879727)"
386,Franceville,Gabon,21,-1.634363,13.589513,"(-1.634363, 13.589513)"
387,Francistown,Botswana,7,-21.16636,27.502515,"(-21.16636, 27.502515)"
388,Franconville,France,3,48.98810455,2.22391266824786,"(48.98810455, 2.22391266824786)"
389,Frankfurt / Main,Germany,17,50.1106444,8.6820917,"(50.1106444, 8.6820917)"
390,Frederiksted,US Virgin Islands,4,17.7118497,-64.8813621,"(17.7118497, -64.8813621)"
391,Freetown,Sierra Leone,26,8.479004,-13.26795,"(8.479004, -13.26795)"
392,Freiburg,Germany,3,47.9960901,7.8494005,"(47.9960901, 7.8494005)"
393,Frisco,USA,9,33.1506744,-96.8236116,"(33.1506744, -96.8236116)"
394,Fukuoka,Japan,1,33.6251241,130.6180016,"(33.6251241, 130.6180016)"
395,Fullerton,USA,1,33.8708215,-117.9294165,"(33.8708215, -117.9294165)"
396,Funchal,Portugal,1,32.6496497,-16.9086783,"(32.6496497, -16.9086783)"
397,Fuzhou,China,1,26.0797124,119.3033837,"(26.0797124, 119.3033837)"
398,Gaborone,Botswana,63,-24.655319,25.908728,"(-24.655319, 25.908728)"
399,Gabs,Tunisia,1,33.8439408,9.400138,"(33.8439408, 9.400138)"
400,Gama,Brazil,1,-16.0170857,-48.0653054,"(-16.0170857, -48.0653054)"
401,Gaoxiong,Taiwan,4,22.6203348,120.3120375,"(22.6203348, 120.3120375)"
402,Garoua,Cameroon,1,9.3070698,13.3934527,"(9.3070698, 13.3934527)"
403,Gdansk,Poland,11,54.36143025,18.6282333804869,"(54.36143025, 18.6282333804869)"
404,Gelsenkirchen,Germany,12,51.5110321,7.0960124,"(51.5110321, 7.0960124)"
405,Geneva,Suisse,35,46.2017559,6.1466014,"(46.2017559, 6.1466014)"
406,Genk,Belgium,5,50.9654864,5.5001456,"(50.9654864, 5.5001456)"
407,Genoa,Italy,6,44.40726,8.9338624,"(44.40726, 8.9338624)"
408,Gentbrugge-Ghent,Belgium,1,51.0447236,3.7588813,"(51.0447236, 3.7588813)"
409,George Town,Cayman Islands,1,19.2953549,-81.3807776,"(19.2953549, -81.3807776)"
410,Georgetown,Guyana,25,6.8025766,-58.1628612,"(6.8025766, -58.1628612)"
411,Getafe,Spain,3,40.3081807,-3.7302679,"(40.3081807, -3.7302679)"
412,Ghent,Belgium,1,51.0538286,3.7250121,"(51.0538286, 3.7250121)"
413,Gianyar,Indonesia,1,-8.5426971,115.3258603,"(-8.5426971, 115.3258603)"
414,Gibraltar,Gibraltar,5,36.140807,-5.3541295,"(36.140807, -5.3541295)"
415,Gijon,Spain,4,43.5450394,-5.6626443,"(43.5450394, -5.6626443)"
416,Gisenyi,Rwanda,8,-1.693545,29.259855,"(-1.693545, 29.259855)"
417,Giurgiu,Romania,1,44.1235263,26.0500444807338,"(44.1235263, 26.0500444807338)"
418,Glasgow,Scotland,55,55.856656,-4.2435817,"(55.856656, -4.2435817)"
419,Glendale,USA,10,34.192912,-118.246248614754,"(34.192912, -118.246248614754)"
420,Goa,India,4,15.3004543,74.0855134,"(15.3004543, 74.0855134)"
421,Goiania,Brazil,4,-16.680882,-49.2532691,"(-16.680882, -49.2532691)"
422,Gold Coast,Australia,1,-28.0023731,153.4145987,"(-28.0023731, 153.4145987)"
423,Gomel,Belarus,3,52.4238936,31.0131698,"(52.4238936, 31.0131698)"
424,Gori,Georgia,1,41.995594,44.1025244707025,"(41.995594, 44.1025244707025)"
425,Gossau,Suisse,1,47.4155906,9.249359,"(47.4155906, 9.249359)"
426,Gothenburg,Sweden,15,57.7072326,11.9670171,"(57.7072326, 11.9670171)"
427,Gouyave,Grenada,1,12.1665178,-61.7297144,"(12.1665178, -61.7297144)"
428,Goyang,South Korea,3,37.6584074,126.8319378,"(37.6584074, 126.8319378)"
429,Granada,Spain,2,37.1830197,-3.602192,"(37.1830197, -3.602192)"
430,Grand Cayman,Cayman Islands,5,19.32988935,-81.1712871647512,"(19.32988935, -81.1712871647512)"
431,Graz,Austria,18,47.0702563,15.4385716,"(47.0702563, 15.4385716)"
432,Grenoble,France,1,45.182151,5.7274722,"(45.182151, 5.7274722)"
433,Grodno,Belarus,1,53.6834599,23.8342648,"(53.6834599, 23.8342648)"
434,Gros Islet,St. Lucia,10,14.0812465,-60.9506375282101,"(14.0812465, -60.9506375282101)"
435,Grozny,Russia,1,43.316845,45.698967,"(43.316845, 45.698967)"
436,Grödig,Austria,1,47.7401445,13.0394938,"(47.7401445, 13.0394938)"
437,Guadalajara,Mexico,3,20.676143,-103.3469982,"(20.676143, -103.3469982)"
438,Guangzhou,China,13,23.1301964,113.2592945,"(23.1301964, 113.2592945)"
439,Guatemala City,Guatemala,50,14.6417889,-90.5132239,"(14.6417889, -90.5132239)"
440,Guayaquil,Ecuador,6,-2.1898771,-79.8877153,"(-2.1898771, -79.8877153)"
441,Guimaraes,Portugal,5,41.4417677,-8.2955712,"(41.4417677, -8.2955712)"
442,Guingamp,France,1,48.5618483,-3.1502007,"(48.5618483, -3.1502007)"
443,Guiyang,China,1,26.5814112,106.7052544,"(26.5814112, 106.7052544)"
444,Gurgaon,India,2,28.4646148,77.0299194,"(28.4646148, 77.0299194)"
445,Guwahati,India,3,26.1805978,91.753943,"(26.1805978, 91.753943)"
446,Gwangju,South Korea,1,35.1601443,126.8513006,"(35.1601443, 126.8513006)"
447,Gyiar,Hungary,3,47.1817585,19.5060937,"(47.1817585, 19.5060937)"
448,Hagatna,Guam,4,13.4773442,144.7521907,"(13.4773442, 144.7521907)"
449,Haifa,Israel,6,32.8191218,34.9983856,"(32.8191218, 34.9983856)"
450,Hamburg,Germany,14,53.550341,10.000654,"(53.550341, 10.000654)"
451,Hamilton,Bermuda,23,32.3298121,-64.7057782525722,"(32.3298121, -64.7057782525722)"
452,Hangzhou,China,3,30.2489634,120.2052342,"(30.2489634, 120.2052342)"
453,Hanoi,Vietnam,62,21.0292095,105.85247,"(21.0292095, 105.85247)"
454,Hanover,Germany,12,52.3744779,9.7385532,"(52.3744779, 9.7385532)"
455,Harare,Zimbabwe,58,-17.831773,31.045686,"(-17.831773, 31.045686)"
456,Harbin,China,1,45.7656666,126.6160584,"(45.7656666, 126.6160584)"
457,Harmon,Guam,6,13.52205505,144.815374991954,"(13.52205505, 144.815374991954)"
458,Hartberg,Austria,3,47.2809371,15.9691769,"(47.2809371, 15.9691769)"
459,Havana,Cuba,35,23.138028,-82.3658671,"(23.138028, -82.3658671)"
460,Hawassa,Ethiopia,1,7.0481029,38.47861,"(7.0481029, 38.47861)"
461,Hebron,Palestine,3,31.5302006,35.094777,"(31.5302006, 35.094777)"
462,Heerenveen,Netherlands,1,52.9567361,5.93326787512682,"(52.9567361, 5.93326787512682)"
463,Hefei,China,2,31.8228094,117.2218033,"(31.8228094, 117.2218033)"
464,Helsingborg,Sweden,1,56.0441984,12.7040684,"(56.0441984, 12.7040684)"
465,Helsinki,Finland,35,60.1674086,24.9425683,"(60.1674086, 24.9425683)"
466,Heraklion,Greece,6,35.3340134,25.1328543,"(35.3340134, 25.1328543)"
467,Heredia,Costa Rica,1,10.17778125,-84.0591841807008,"(10.17778125, -84.0591841807008)"
468,Herning,Denmark,2,56.1379757,8.9746623,"(56.1379757, 8.9746623)"
469,Hesperange,Luxembourg,6,49.5729552,6.1615727,"(49.5729552, 6.1615727)"
470,Hiroshima,Japan,1,34.3916058,132.4518156,"(34.3916058, 132.4518156)"
471,Ho Chi Minh City,Vietnam,22,10.7758439,106.7017555,"(10.7758439, 106.7017555)"
472,Hohhot,Mongolia,3,40.8337963,111.6730788,"(40.8337963, 111.6730788)"
473,Homs,Syria,1,34.7333334,36.7166667,"(34.7333334, 36.7166667)"
474,Hong Kong,Hong Kong,86,22.2793278,114.1628131,"(22.2793278, 114.1628131)"
475,Honiara,Solomon Islands,42,-9.4312971,159.9552773,"(-9.4312971, 159.9552773)"
476,Horsens,Denmark,1,55.8611696,9.8444774,"(55.8611696, 9.8444774)"
477,Houston,USA,43,29.7589382,-95.3676974,"(29.7589382, -95.3676974)"
478,Huelva,Spain,2,37.2575874,-6.9484945,"(37.2575874, -6.9484945)"
479,Hwaseong,South Korea,4,37.1994653,126.8312632,"(37.1994653, 126.8312632)"
480,Hyderabad,India,15,17.3616079,78.4746286,"(17.3616079, 78.4746286)"
481,Ibaraki,Japan,1,36.3420485,140.398432594098,"(36.3420485, 140.398432594098)"
482,Ichihara,Japan,1,35.497775,140.1156996,"(35.497775, 140.1156996)"
483,Ilha do Sal,Cape Verde,1,14.9080681,-23.5263327,"(14.9080681, -23.5263327)"
484,Iloilo City,Philippines,3,10.7026718,122.5686136,"(10.7026718, 122.5686136)"
485,Incheon,South Korea,10,37.4734048,126.6165903,"(37.4734048, 126.6165903)"
486,Ingolstadt,na,1,48.7630165,11.4250395,"(48.7630165, 11.4250395)"
487,Innsbruck,Austria,21,47.2654296,11.3927685,"(47.2654296, 11.3927685)"
488,Ipswich,England,1,52.0579495,1.1526345,"(52.0579495, 1.1526345)"
489,Iquique,Chile,1,-20.2139737,-70.1523761,"(-20.2139737, -70.1523761)"
490,Iquitos,Peru,1,-3.7489983,-73.2458372,"(-3.7489983, -73.2458372)"
491,Irbed,Jordan,2,32.4267271,35.9495444,"(32.4267271, 35.9495444)"
492,Isa Town,Bahrain,2,26.1741995,50.5473432,"(26.1741995, 50.5473432)"
493,Ismailia,Egypt,2,30.6043775,32.2770825,"(30.6043775, 32.2770825)"
494,Istanbul,Turkey,47,41.0096334,28.9651646,"(41.0096334, 28.9651646)"
495,Izmir,Turkey,3,38.4153421,27.144474,"(38.4153421, 27.144474)"
496,Izmit,Turkey,1,40.7643476,29.9279311,"(40.7643476, 29.9279311)"
497,Jablonec,Czech Republic,3,50.4531488,13.8069282,"(50.4531488, 13.8069282)"
498,Jacksonville,USA,3,30.3321838,-81.655651,"(30.3321838, -81.655651)"
499,Jagodina,Serbia,1,43.9794256,21.2607688,"(43.9794256, 21.2607688)"
500,Jakarta,Indonesia,53,-6.1753942,106.827183,"(-6.1753942, 106.827183)"
501,Jeddah,Saudi Arabia,51,21.5822247,39.1640396,"(21.5822247, 39.1640396)"
502,Jeju,na,1,33.3940067,126.5626688,"(33.3940067, 126.5626688)"
503,Jenin,Palestine,1,32.4618837,35.297566,"(32.4618837, 35.297566)"
504,Jeonju,South Korea,5,35.8242715,127.1480657,"(35.8242715, 127.1480657)"
505,Jerez de la Frontera,Spain,4,36.6816936,-6.1377402,"(36.6816936, -6.1377402)"
506,Jerusalem,Israel,6,31.778345,35.2250786,"(31.778345, 35.2250786)"
507,Jessore,Bangladesh,3,23.1665214,89.2095344,"(23.1665214, 89.2095344)"
508,Jinan,South Korea,9,35.81691,127.43476,"(35.81691, 127.43476)"
509,Jinja,Uganda,8,0.5465468,33.2248168609287,"(0.5465468, 33.2248168609287)"
510,Johannesburg,South Africa,64,-26.205,28.049722,"(-26.205, 28.049722)"
511,Johor Bahru,Malaysia,3,1.4953041,103.7550839,"(1.4953041, 103.7550839)"
512,Jounieh,Lebanon,1,33.9741506,35.6200633,"(33.9741506, 35.6200633)"
513,Juarez,Mexico,2,17.7006623,-93.1978916620607,"(17.7006623, -93.1978916620607)"
514,Juba,South Sudan,7,4.8472017,31.5951655,"(4.8472017, 31.5951655)"
515,Jujuy,Argentina,2,-23.3161458,-65.7595288,"(-23.3161458, -65.7595288)"
516,Jurmala,Latvia,1,56.9727164,23.7886979,"(56.9727164, 23.7886979)"
517,Juticalpa,Honduras,1,14.6672029,-86.2195829,"(14.6672029, -86.2195829)"
518,Kabul,Afghanistan,2,34.5260131,69.1776476,"(34.5260131, 69.1776476)"
519,Kaduna,Nigeria,4,10.3825318,7.8533226,"(10.3825318, 7.8533226)"
520,Kaiserslautern,Germany,12,49.4432174,7.7689951,"(49.4432174, 7.7689951)"
521,Kakamega,Kenya,7,0.4957104,34.8015488616346,"(0.4957104, 34.8015488616346)"
522,Kaliningrad,Russia,4,54.7066422,20.5105166,"(54.7066422, 20.5105166)"
523,Kallang,Singapore,4,1.3114481,103.8713388,"(1.3114481, 103.8713388)"
524,Kampala,Uganda,93,0.3177137,32.5813539,"(0.3177137, 32.5813539)"
525,Kano,Nigeria,2,11.9918671,8.5303654,"(11.9918671, 8.5303654)"
526,Kansas City,USA,7,39.0844687,-94.5630298,"(39.0844687, -94.5630298)"
527,Kaohsiung,Japan,18,22.621102,120.3210449,"(22.621102, 120.3210449)"
528,Kapfenberg,Austria,1,47.4405481,15.2901669,"(47.4405481, 15.2901669)"
529,Karachi,Pakistan,18,25.147872,67.1821931713384,"(25.147872, 67.1821931713384)"
530,Karaj,Iran,1,35.8121955,51.0073853,"(35.8121955, 51.0073853)"
531,Karbala,Iraq,1,32.4511703,43.8196617,"(32.4511703, 43.8196617)"
532,Kariavattom,India,12,8.5591375,76.8842205,"(8.5591375, 76.8842205)"
533,Karima,Sudan,1,18.545128,31.847617,"(18.545128, 31.847617)"
534,Kartepe,Turkey,1,40.692493,30.0364545,"(40.692493, 30.0364545)"
535,Kasan,Russia,1,55.7823547,49.1242266,"(55.7823547, 49.1242266)"
536,Kashima,Japan,1,35.9661164,140.6450292,"(35.9661164, 140.6450292)"
537,Kassala,Sudan,3,15.41184715,35.6587081532383,"(15.41184715, 35.6587081532383)"
538,Kathmandu,Nepal,57,27.708796,85.320244,"(27.708796, 85.320244)"
539,Kattameya,Egypt,2,30.0014688,31.5198459,"(30.0014688, 31.5198459)"
540,Katutura,Namibia,6,-22.5210364,17.0556959,"(-22.5210364, 17.0556959)"
541,Kaunas,Lithuania,24,54.8982139,23.9044817,"(54.8982139, 23.9044817)"
542,Kayseri,Turkey,3,38.7225274,35.4874516,"(38.7225274, 35.4874516)"
543,Kazan,Russia,11,55.7823547,49.1242266,"(55.7823547, 49.1242266)"
544,Keetmanshoop,Namibia,1,-26.581239,18.1369733865149,"(-26.581239, 18.1369733865149)"
545,Kelsterbach,Germany,1,50.065151,8.5296632,"(50.065151, 8.5296632)"
546,Kematen,Austria,1,48.0294158,14.7675672,"(48.0294158, 14.7675672)"
547,Kenitra,Morocco,1,34.26457,-6.570169,"(34.26457, -6.570169)"
548,Kennesaw,USA,1,34.0234337,-84.6154897,"(34.0234337, -84.6154897)"
549,Kermanshah,Iran,1,34.3239414,47.0735891,"(34.3239414, 47.0735891)"
550,Kharkov,Ukraine,10,49.99142545,36.2722660718121,"(49.99142545, 36.2722660718121)"
551,Khartoum,Sudan,34,15.593325,32.53565,"(15.593325, 32.53565)"
552,Khimki,Russia,4,55.8892847,37.4449896,"(55.8892847, 37.4449896)"
553,Khobar,Saudi Arabia,1,26.3039999,50.1960237,"(26.3039999, 50.1960237)"
554,Khujand City,Tajikistan,3,40.2828032,69.6389657,"(40.2828032, 69.6389657)"
555,Kielce,Poland,3,50.85403585,20.6099143521015,"(50.85403585, 20.6099143521015)"
556,Kigali,Rwanda,91,-1.8859597,30.1296751,"(-1.8859597, 30.1296751)"
557,Kimberly,South Africa,1,-33.31688475,26.5118353921339,"(-33.31688475, 26.5118353921339)"
558,Kingston,Jamaica,64,17.9712148,-76.7928128,"(17.9712148, -76.7928128)"
559,Kingston / Ontario,Canada,2,44.230687,-76.481323,"(44.230687, -76.481323)"
560,Kingstown,St. Vincent and the Grenadines,49,13.1561864,-61.2279621,"(13.1561864, -61.2279621)"
561,Kinshasa,DR Congo,37,-4.3217055,15.3125974,"(-4.3217055, 15.3125974)"
562,Kitende,Uganda,1,0.2,32.533333,"(0.2, 32.533333)"
563,Kitwe,Zambia,12,-12.8104186,28.2068361,"(-12.8104186, 28.2068361)"
564,Klagenfurt,Austria,20,46.6228162,14.3079604,"(46.6228162, 14.3079604)"
565,Klaipeda,Lithuania,1,55.7127529,21.1350469,"(55.7127529, 21.1350469)"
566,Kobe,Japan,4,34.6932379,135.1943764,"(34.6932379, 135.1943764)"
567,Kochin,India,3,9.9633864,76.2536614,"(9.9633864, 76.2536614)"
568,Kone,New Caledonia,2,-21.03776795,164.915621805441,"(-21.03776795, 164.915621805441)"
569,Konya,Turkey,4,37.8719963,32.4844015,"(37.8719963, 32.4844015)"
570,Kopavogur,Iceland,3,64.08744185,-21.8248138651564,"(64.08744185, -21.8248138651564)"
571,Koper,Slovenia,3,45.5479551,13.7304909,"(45.5479551, 13.7304909)"
572,Koprivnica,Croatia,1,46.162944,16.8319162,"(46.162944, 16.8319162)"
573,Korce,Albania,1,40.6158913,20.7772019,"(40.6158913, 20.7772019)"
574,Krabi,Thailand,1,8.1111653,99.1097298,"(8.1111653, 99.1097298)"
575,Krakow,Poland,5,50.0619474,19.9368564,"(50.0619474, 19.9368564)"
576,Krasnodar,Russia,8,45.0354329,38.9757116,"(45.0354329, 38.9757116)"
577,Krefeld,Germany,1,51.3331205,6.5623343,"(51.3331205, 6.5623343)"
578,Krubong,Malaysia,3,2.2959085,102.246881,"(2.2959085, 102.246881)"
579,Krusevac,Serbia,1,43.5825653,21.326599,"(43.5825653, 21.326599)"
580,Kuala Lumpur,Malaysia,80,3.1546872,101.7136362,"(3.1546872, 101.7136362)"
581,Kuantan,Malaysia,3,3.8196701,103.3292235,"(3.8196701, 103.3292235)"
582,Kuching,Malaysia,13,1.5574127,110.3439862,"(1.5574127, 110.3439862)"
583,Kufstein,Austria,7,47.582996,12.1692134,"(47.582996, 12.1692134)"
584,Kumamoto,Japan,1,32.6450475,130.6341345,"(32.6450475, 130.6341345)"
585,Kumasi,Ghana,33,6.698081,-1.6230404,"(6.698081, -1.6230404)"
586,Kundu,Turkey,1,36.8585978,30.8862558,"(36.8585978, 30.8862558)"
587,Kunming,China,8,25.0437977,102.714338,"(25.0437977, 102.714338)"
588,Kuressaare,Estonia,1,58.2527693,22.4849207,"(58.2527693, 22.4849207)"
589,Kutaisi,Georgia,1,42.25899995,42.667269338144,"(42.25899995, 42.667269338144)"
590,Kuwait,Kuwait,1,29.2733964,47.4979476,"(29.2733964, 47.4979476)"
591,Kuwait City,Kuwait,117,29.3797091,47.9735629,"(29.3797091, 47.9735629)"
592,Kyiv,Ukraine,49,50.4501071,30.5240501,"(50.4501071, 30.5240501)"
593,La Calera,Chile,1,-32.788981,-71.203546,"(-32.788981, -71.203546)"
594,La Ceiba,Honduras,5,15.6720462,-86.7341709813332,"(15.6720462, -86.7341709813332)"
595,La Chorrera,Panama,1,8.9789112,-79.8704328818518,"(8.9789112, -79.8704328818518)"
596,La Coruna,Spain,1,28.0336642,-15.6671694,"(28.0336642, -15.6671694)"
597,La Courneuve,France,4,48.9267236,2.3896123,"(48.9267236, 2.3896123)"
598,La Línea de la Concepción,Spain,1,36.1679025,-5.3471403,"(36.1679025, -5.3471403)"
599,La Manga,Spain,1,36.4573445,-5.2649503,"(36.4573445, -5.2649503)"
600,La Paz,Bolivia,41,-16.4956371,-68.1336346,"(-16.4956371, -68.1336346)"
601,La Plata,Argentina,8,-34.9206797,-57.9537638,"(-34.9206797, -57.9537638)"
602,La Serena,Chile,4,-29.9026615,-71.2520136,"(-29.9026615, -71.2520136)"
603,Labasa,Fiji,1,-16.4332753,179.3664854,"(-16.4332753, 179.3664854)"
604,Lagos,Nigeria,5,6.4550575,3.3941795,"(6.4550575, 3.3941795)"
605,Lahore,Pakistan,7,31.5164908,74.3294942,"(31.5164908, 74.3294942)"
606,Landover,USA,2,38.9340002,-76.8966397,"(38.9340002, -76.8966397)"
607,Lankaran,Azerbaijan,1,38.76565935,48.8265366190304,"(38.76565935, 48.8265366190304)"
608,Larissa,Greece,2,39.6383092,22.4160706,"(39.6383092, 22.4160706)"
609,Larnaca,Cyprus,36,34.9172012,33.6378531,"(34.9172012, 33.6378531)"
610,Las Palmas,Spain,2,28.1287799,-15.4350514,"(28.1287799, -15.4350514)"
611,Las Vegas,USA,2,36.1662859,-115.149225,"(36.1662859, -115.149225)"
612,Latacunga,Ecuador,1,-0.9336134,-78.6148841,"(-0.9336134, -78.6148841)"
613,Lauderhill,USA,1,26.1403635,-80.2133808,"(26.1403635, -80.2133808)"
614,Lausanne,Suisse,4,46.5218269,6.6327025,"(46.5218269, 6.6327025)"
615,Lautoka,Fiji,10,-17.6043956,177.4530138,"(-17.6043956, 177.4530138)"
616,Le Havre,France,4,49.4938975,0.1079732,"(49.4938975, 0.1079732)"
617,Le Lamentin,Martinique,1,14.6368275,-61.0157355341703,"(14.6368275, -61.0157355341703)"
618,Le Mans,France,4,48.0078497,0.1997933,"(48.0078497, 0.1997933)"
619,Le Petit-Quevilly,France,3,49.4238,1.06208,"(49.4238, 1.06208)"
620,Le Port,Reunion,1,-20.9354584,55.2916763,"(-20.9354584, 55.2916763)"
621,Le Touquet,France,1,50.7016553,3.0552837,"(50.7016553, 3.0552837)"
622,Lecce,Italy,2,40.3570373,18.1718482,"(40.3570373, 18.1718482)"
623,Leeds,England,1,53.7974185,-1.5437941,"(53.7974185, -1.5437941)"
624,Leicester,England,3,52.6361398,-1.1330789,"(52.6361398, -1.1330789)"
625,Leipzig,Germany,12,51.3391827,12.3810549,"(51.3391827, 12.3810549)"
626,Leiria,Portugal,9,39.743628,-8.8067452,"(39.743628, -8.8067452)"
627,Lens,France,9,50.4291723,2.8319805,"(50.4291723, 2.8319805)"
628,Leon,Spain,3,42.5989995,-5.5682413,"(42.5989995, -5.5682413)"
629,Leonora,Guyana,1,6.8705402,-58.2884403,"(6.8705402, -58.2884403)"
630,Les Abymes,Guadeloupe,2,16.2706436,-61.5057749,"(16.2706436, -61.5057749)"
631,Leverkusen,Germany,3,51.0324743,6.9881194,"(51.0324743, 6.9881194)"
632,Liberec,Czech Republic,4,50.7702648,15.0583947,"(50.7702648, 15.0583947)"
633,Liberia,Costa Rica,2,10.6927375,-85.4987893394147,"(10.6927375, -85.4987893394147)"
634,Libreville,Gabon,62,0.390002,9.454001,"(0.390002, 9.454001)"
635,Liege,Belgium,8,50.6451381,5.5734203,"(50.6451381, 5.5734203)"
636,Liepaja,Latvia,3,56.5111901,21.0184692,"(56.5111901, 21.0184692)"
637,Lilongwe,Malawi,7,-13.973456,33.7878122,"(-13.973456, 33.7878122)"
638,Lima,Peru,62,-12.0621065,-77.0365256,"(-12.0621065, -77.0365256)"
639,Limassol,Cyprus,19,34.79489125,32.985589384508,"(34.79489125, 32.985589384508)"
640,Limbu,Cameroon,4,4.6125522,13.1535811,"(4.6125522, 13.1535811)"
641,Limeil-Brévannes,France,1,48.7464991,2.4867977,"(48.7464991, 2.4867977)"
642,Limerick,Ireland,2,52.661252,-8.6301239,"(52.661252, -8.6301239)"
643,Linden,Guyana,5,6.0129279,-58.307217,"(6.0129279, -58.307217)"
644,Linz,Austria,4,48.3059078,14.286198,"(48.3059078, 14.286198)"
645,Lisbon,Portugal,46,38.7077507,-9.1365919,"(38.7077507, -9.1365919)"
646,Liverpool,England,2,53.4054719,-2.9805392,"(53.4054719, -2.9805392)"
647,Livorno,Italy,1,43.5507411,10.3091456,"(43.5507411, 10.3091456)"
648,Ljubljana,Slovenia,27,46.049865,14.5068921,"(46.049865, 14.5068921)"
649,Llanelli,Wales,3,51.6797331,-4.1620223,"(51.6797331, -4.1620223)"
650,Lobamba,Swaziland,25,-26.4462848,31.2083781,"(-26.4462848, 31.2083781)"
651,Lobatse,Botswana,6,-25.2100604,25.6819594,"(-25.2100604, 25.6819594)"
652,Lodz,Poland,2,51.77305755,19.4783822195225,"(51.77305755, 19.4783822195225)"
653,Logrono,Spain,2,42.4661196,-2.4396676,"(42.4661196, -2.4396676)"
654,Loja,Ecuador,1,-3.9977806,-79.2024518,"(-3.9977806, -79.2024518)"
655,Lome,Togo,44,6.130419,1.215829,"(6.130419, 1.215829)"
656,London,England,110,51.5073219,-0.1276474,"(51.5073219, -0.1276474)"
657,Longjumeau,New Caledonia,1,-21.3019905,165.4880773,"(-21.3019905, 165.4880773)"
658,Look Out,Montserrat,1,16.7930856,-62.1854712,"(16.7930856, -62.1854712)"
659,Los Angeles,USA,44,34.054935,-118.244476,"(34.054935, -118.244476)"
660,Loule,Portugal,1,37.21427465,-8.08652381525089,"(37.21427465, -8.08652381525089)"
661,Luanda,Angola,49,-8.8272699,13.2439512,"(-8.8272699, 13.2439512)"
662,Lubango,Angola,12,-14.9195371,13.4898109,"(-14.9195371, 13.4898109)"
663,Lubin,Poland,1,51.3974465,16.2051275,"(51.3974465, 16.2051275)"
664,Lubumbashi,DR Congo,6,-11.6642316,27.4826264,"(-11.6642316, 27.4826264)"
665,Lucerne,Suisse,7,47.0505452,8.3054682,"(47.0505452, 8.3054682)"
666,Lugano,Suisse,3,46.0050102,8.9520281,"(46.0050102, 8.9520281)"
667,Luque,Paraguay,3,-25.2665554,-57.492708,"(-25.2665554, -57.492708)"
668,Lusaka,Zambia,34,-15.4164488,28.2821535,"(-15.4164488, 28.2821535)"
669,Luxembourg,Luxembourg,77,49.8158683,6.1296751,"(49.8158683, 6.1296751)"
670,Lviv,Ukraine,16,49.841952,24.0315921,"(49.841952, 24.0315921)"
671,Lyon,France,13,45.7578137,4.8320114,"(45.7578137, 4.8320114)"
672,Macau,Macau,17,22.1741907,113.5515429,"(22.1741907, 113.5515429)"
673,Maceio,Brazil,1,-9.6476843,-35.7339264,"(-9.6476843, -35.7339264)"
674,Machakos,Kenya,18,-1.27900465,37.3952697645255,"(-1.27900465, 37.3952697645255)"
675,Macoya,Trinidad and Tobago,11,10.6275693,-61.3855757,"(10.6275693, -61.3855757)"
676,Madrid,Spain,19,40.4167047,-3.7035825,"(40.4167047, -3.7035825)"
677,Mahajanga,Madagascar,1,-15.7181492,46.3172577,"(-15.7181492, 46.3172577)"
678,Mahu,Seychelles,3,-4.6574977,55.4540146,"(-4.6574977, 55.4540146)"
679,Mahé,Seychelles,1,-4.6803697,55.4823125,"(-4.6803697, 55.4823125)"
680,Mainz,Germany,2,49.9999952,8.2710237,"(49.9999952, 8.2710237)"
681,Malabo,Equatorial Guinea,48,3.752828,8.780061,"(3.752828, 8.780061)"
682,Malaga,Spain,7,36.7213028,-4.4216366,"(36.7213028, -4.4216366)"
683,Malang,Indonesia,2,-7.9771206,112.6340291,"(-7.9771206, 112.6340291)"
684,Male,Maldives,57,4.1779879,73.5107387,"(4.1779879, 73.5107387)"
685,Mallemort,France,1,43.7314716,5.1802855,"(43.7314716, 5.1802855)"
686,Malmo,Sweden,5,55.6052931,13.0001566,"(55.6052931, 13.0001566)"
687,Managua,Nicaragua,20,12.1461244,-86.273717,"(12.1461244, -86.273717)"
688,Manama,Bahrain,98,26.2235041,50.5822436,"(26.2235041, 50.5822436)"
689,Manaos,Brazil,1,-3.1316333,-59.9825041,"(-3.1316333, -59.9825041)"
690,Manaus,Brazil,5,-3.1316333,-59.9825041,"(-3.1316333, -59.9825041)"
691,Manchester,England,18,53.4791301,-2.2441009,"(53.4791301, -2.2441009)"
692,Manila,Philippines,34,14.5906216,120.9799696,"(14.5906216, 120.9799696)"
693,Manisa,Turkey,1,38.6155029,27.4255716,"(38.6155029, 27.4255716)"
694,Mantes-La-Jolie,France,1,48.9891971,1.7140683,"(48.9891971, 1.7140683)"
695,Mantes-La-Ville,France,3,48.9748938,1.7109449,"(48.9748938, 1.7109449)"
696,Manzini,Swaziland,7,-26.527215,31.1882205408148,"(-26.527215, 31.1882205408148)"
697,Maputo,Mozambique,61,-26.0476384,32.7940489150237,"(-26.0476384, 32.7940489150237)"
698,Mar del Plata,Argentina,2,-37.9977225,-57.5482703,"(-37.9977225, -57.5482703)"
699,Marabella,Trinidad and Tobago,11,10.3073477,-61.4518649,"(10.3073477, -61.4518649)"
700,Maracaibo,Venezuela,22,10.6412212,-71.6075383,"(10.6412212, -71.6075383)"
701,Maracay,Venezuela,1,10.2513662,-67.6017245,"(10.2513662, -67.6017245)"
702,Marbella,Spain,3,36.508976,-4.88562,"(36.508976, -4.88562)"
703,Margao,India,3,15.2729139,73.9581221,"(15.2729139, 73.9581221)"
704,Maribor,Slovenia,17,46.555628,15.64477,"(46.555628, 15.64477)"
705,Marignane,Mali,1,16.3700359,-2.2900239,"(16.3700359, -2.2900239)"
706,Marijampole,Lithuania,5,54.5562536,23.3503665,"(54.5562536, 23.3503665)"
707,Marrakech,Morocco,42,31.6258257,-7.9891608,"(31.6258257, -7.9891608)"
708,Marseille,France,9,43.2961743,5.3699525,"(43.2961743, 5.3699525)"
709,Martigues,France,1,43.4057279,5.0548176,"(43.4057279, 5.0548176)"
710,Maseru,Lesotho,51,-29.310054,27.478222,"(-29.310054, 27.478222)"
711,Mashad,Iran,1,36.2974945,59.6059232,"(36.2974945, 59.6059232)"
712,Masvingo,Zimbabwe,2,-20.0720142,30.8341936,"(-20.0720142, 30.8341936)"
713,Matola,Mozambique,2,-25.966917,32.466956,"(-25.966917, 32.466956)"
714,Matsumoto,Japan,2,36.2382047,137.9687141,"(36.2382047, 137.9687141)"
715,Maturin,Venezuela,7,9.7452286,-63.1799873,"(9.7452286, -63.1799873)"
716,Maun,Botswana,1,-19.9860951,23.4224352,"(-19.9860951, 23.4224352)"
717,Mazatenango,Guatemala,1,14.4945606,-91.5421809243556,"(14.4945606, -91.5421809243556)"
718,Mbabane,Swaziland,13,-26.325745,31.144663,"(-26.325745, 31.144663)"
719,Mbagala,Tanzania,1,-6.8991777,39.2646405396902,"(-6.8991777, 39.2646405396902)"
720,Mbeya,Tanzania,1,-8.4261403,34.1366648000289,"(-8.4261403, 34.1366648000289)"
721,Medellin,Colombia,3,6.2443382,-75.573553,"(6.2443382, -75.573553)"
722,Meknes,Morocco,2,33.8978116,-5.5319836,"(33.8978116, -5.5319836)"
723,Melaka,Malaysia,5,2.2001524,102.2507207,"(2.2001524, 102.2507207)"
724,Melbourne,Australia,23,-37.8142176,144.9631608,"(-37.8142176, 144.9631608)"
725,Melun,France,2,48.539927,2.6608169,"(48.539927, 2.6608169)"
726,Mendoza,Argentina,9,-32.8897294,-68.8442956,"(-32.8897294, -68.8442956)"
727,Merida,Venezuela,10,8.5974101,-71.1444008,"(8.5974101, -71.1444008)"
728,Mersin,Turkey,1,36.8117583,34.6292679,"(36.8117583, 34.6292679)"
729,Messina,Italy,1,38.1937571,15.5542082,"(38.1937571, 15.5542082)"
730,Metz,France,5,49.1196964,6.1763552,"(49.1196964, 6.1763552)"
731,Mexico City,Mexico,38,19.4326009,-99.1333416,"(19.4326009, -99.1333416)"
732,Meyrin,Suisse,1,46.2283226,6.0712016,"(46.2283226, 6.0712016)"
733,Miami,USA,50,25.7742658,-80.1936589,"(25.7742658, -80.1936589)"
734,Middlesbrough,England,1,54.5760419,-1.2344047,"(54.5760419, -1.2344047)"
735,Milan,Italy,8,45.4667971,9.1904984,"(45.4667971, 9.1904984)"
736,Milton Keynes,England,2,52.0429797,-0.7589607,"(52.0429797, -0.7589607)"
737,Minsk,Belarus,38,53.902334,27.5618791,"(53.902334, 27.5618791)"
738,Misurata,Libya,1,32.3745318,15.0904886,"(32.3745318, 15.0904886)"
739,Mitrovica,Kosovo,3,42.8907818,20.8665137,"(42.8907818, 20.8665137)"
740,Mitsamiouli,Comoros,10,-11.3888547,43.2930126,"(-11.3888547, 43.2930126)"
741,Miyagi,Japan,2,38.3880155,140.9761025,"(38.3880155, 140.9761025)"
742,Mlada Boleslav,Czech Republic,2,50.4116187,14.9031301,"(50.4116187, 14.9031301)"
743,Mmabatho,South Africa,3,-25.8491608,25.6091648,"(-25.8491608, 25.6091648)"
744,Moanda,Gabon,2,-1.554004,13.220574,"(-1.554004, 13.220574)"
745,Modena,na,3,41.6684268,-74.1026437,"(41.6684268, -74.1026437)"
746,Moenchengladbach,Germany,6,51.1946983,6.4353641,"(51.1946983, 6.4353641)"
747,Molde,Norway,1,62.75091365,7.35477450446941,"(62.75091365, 7.35477450446941)"
748,Molepolole,Botswana,5,-24.4058025,25.5151645,"(-24.4058025, 25.5151645)"
749,Mombasa,Kenya,5,-4.0390146,39.648390961857,"(-4.0390146, 39.648390961857)"
750,Monaco,France,2,47.9965406,5.5307301,"(47.9965406, 5.5307301)"
751,Monastir,Tunisia,20,35.7398399,10.7986953383714,"(35.7398399, 10.7986953383714)"
752,Mongomo,Equatorial Guinea,6,1.626164,11.311975,"(1.626164, 11.311975)"
753,Monrovia,Liberia,31,6.328034,-10.797788,"(6.328034, -10.797788)"
754,Mons,France,2,46.26065075,6.09239157519059,"(46.26065075, 6.09239157519059)"
755,Montego Bay,Jamaica,18,18.4724603,-77.9217357,"(18.4724603, -77.9217357)"
756,Monterey Park,USA,1,34.051522,-118.129807,"(34.051522, -118.129807)"
757,Monterrey,Mexico,4,25.63978365,-100.293101629066,"(25.63978365, -100.293101629066)"
758,Montevideo,Uruguay,51,-34.9059039,-56.1913569,"(-34.9059039, -56.1913569)"
759,Montpellier,France,4,43.6112422,3.8767337,"(43.6112422, 3.8767337)"
760,Montreal,Canada,7,45.4972159,-73.6103642,"(45.4972159, -73.6103642)"
761,Moquegua,Peru,1,-6.8699697,-75.0458515,"(-6.8699697, -75.0458515)"
762,Morogoro,Tanzania,1,-6.86835,37.8138001448415,"(-6.86835, 37.8138001448415)"
763,Moroni,Comoros,5,-11.6931255,43.2543044,"(-11.6931255, 43.2543044)"
764,Moruleng,South Africa,26,-25.175,27.178889,"(-25.175, 27.178889)"
765,Moscow,Russia,64,55.7507178,37.6176606,"(55.7507178, 37.6176606)"
766,Muharraq,Bahrain,9,26.2465946,50.6164127,"(26.2465946, 50.6164127)"
767,Mumbai,India,11,19.1334321,72.8882172,"(19.1334321, 72.8882172)"
768,Mumias,Kenya,3,0.3363,34.4891,"(0.3363, 34.4891)"
769,Munich,Germany,11,48.1371079,11.5753822,"(48.1371079, 11.5753822)"
770,Murcia,Spain,4,37.9923795,-1.1305431,"(37.9923795, -1.1305431)"
771,Murska Sobota,Slovenia,1,46.6624644,16.1655256,"(46.6624644, 16.1655256)"
772,Muscat,Oman,115,23.5125498,58.5514017715319,"(23.5125498, 58.5514017715319)"
773,Mutare,Zimbabwe,1,-19.24555365,32.4370922669523,"(-19.24555365, 32.4370922669523)"
774,Mwanza,Tanzania,5,-2.5176241,32.8984523,"(-2.5176241, 32.8984523)"
775,Mzuzu,Malawi,1,-11.4607518,34.0226422,"(-11.4607518, 34.0226422)"
776,NDjamena,Chad,29,12.1191543,15.0502758,"(12.1191543, 15.0502758)"
777,Nadi,Fiji,4,-17.7993389,177.4172058,"(-17.7993389, 177.4172058)"
778,Nairobi,Kenya,70,-1.2832533,36.8172449,"(-1.2832533, 36.8172449)"
779,Nakhon Ratchasima,Thailand,5,15.2241917,101.9313754,"(15.2241917, 101.9313754)"
780,Nakhon Sawan,Thailand,1,15.7054772,99.9288481,"(15.7054772, 99.9288481)"
781,Nakuru,Kenya,5,-0.4598213,36.10067977858,"(-0.4598213, 36.10067977858)"
782,Nam Dinh,Vietnam,1,20.2712241,106.1629895,"(20.2712241, 106.1629895)"
783,Nanjing,China,13,32.0609736,118.7916458,"(32.0609736, 118.7916458)"
784,Nanterre,France,1,48.8924273,2.2071267,"(48.8924273, 2.2071267)"
785,Nantes,France,2,47.2186371,-1.5541362,"(47.2186371, -1.5541362)"
786,Naples,Italy,2,40.8359336,14.2487826,"(40.8359336, 14.2487826)"
787,Narbonne,France,1,43.182806,3.0043128,"(43.182806, 3.0043128)"
788,Nashville,USA,6,36.1622296,-86.7743531,"(36.1622296, -86.7743531)"
789,Nassau,Bahamas,6,25.0783456,-77.3383331,"(25.0783456, -77.3383331)"
790,Natal,Brazil,5,-5.805398,-35.2080905,"(-5.805398, -35.2080905)"
791,Navua,Fiji,1,-18.2264467,178.166785,"(-18.2264467, 178.166785)"
792,Naypyidaw,Myanmar,1,19.7540045,96.1344976,"(19.7540045, 96.1344976)"
793,Ndola,Zambia,29,-12.9693056,28.6365894,"(-12.9693056, 28.6365894)"
794,Nelspruit,South Africa,26,-25.481944,30.984722,"(-25.481944, 30.984722)"
795,Netanya,Israel,4,32.3286181,34.8566246,"(32.3286181, 34.8566246)"
796,Neuchatel,Suisse,1,46.9895828,6.9292641,"(46.9895828, 6.9292641)"
797,New Britain,USA,1,41.68174355,-72.7881465300835,"(41.68174355, -72.7881465300835)"
798,New Delhi,India,49,28.6141793,77.2022662,"(28.6141793, 77.2022662)"
799,New York,USA,8,40.7306458,-73.9866136,"(40.7306458, -73.9866136)"
800,New York City,USA,19,40.7306458,-73.9866136,"(40.7306458, -73.9866136)"
801,New York/New Jersey,USA,29,40.8963634,-74.0659712,"(40.8963634, -74.0659712)"
802,Newcastle,Australia,4,-32.9272881,151.7812534,"(-32.9272881, 151.7812534)"
803,Newcastle,England,2,54.9770924,-1.6142059,"(54.9770924, -1.6142059)"
804,Niamey,Niger,40,13.4998139,2.10948597212168,"(13.4998139, 2.10948597212168)"
805,Nice,France,12,43.7009358,7.2683912,"(43.7009358, 7.2683912)"
806,Nicosia,Cyprus,50,35.180282,33.3736958666529,"(35.180282, 33.3736958666529)"
807,Niigata,Japan,7,37.6452283,138.7669125,"(37.6452283, 138.7669125)"
808,Nijmegen,Netherlands,2,51.84260195,5.8385196119892,"(51.84260195, 5.8385196119892)"
809,Nizhny Novgorod,Russia,6,56.328571,44.003506,"(56.328571, 44.003506)"
810,Nizwa,Oman,1,22.9323884,57.5311,"(22.9323884, 57.5311)"
811,Nonthaburi,Thailand,2,13.8610918,100.3456772,"(13.8610918, 100.3456772)"
812,NorrkIping,Sweden,1,59.6749712,14.5208584,"(59.6749712, 14.5208584)"
813,North Sound,Antigua and Barbuda,7,17.079128,-61.8222516,"(17.079128, -61.8222516)"
814,Nouakchott,Mauritania,29,18.0792379,-15.9780071,"(18.0792379, -15.9780071)"
815,Noumea,New Caledonia,21,-22.2745264,166.442419,"(-22.2745264, 166.442419)"
816,Nova Gorica,Slovenia,2,45.9580549,13.6474706,"(45.9580549, 13.6474706)"
817,Novi Sad,Serbia,5,45.2551338,19.8451756,"(45.2551338, 19.8451756)"
818,Nuremberg,Germany,15,49.453872,11.077298,"(49.453872, 11.077298)"
819,Nyon,Suisse,3,46.3820585,6.2402791,"(46.3820585, 6.2402791)"
820,Oakland,USA,5,37.8044557,-122.2713563,"(37.8044557, -122.2713563)"
821,Oberkorn,Luxembourg,1,49.5135907,5.8947993,"(49.5135907, 5.8947993)"
822,Obidos,Cape Verde,1,16.0000552,-24.0083947,"(16.0000552, -24.0083947)"
823,Obuasi,Ghana,1,6.2116833,-1.689611,"(6.2116833, -1.689611)"
824,Odense,Denmark,3,55.3997225,10.3852104,"(55.3997225, 10.3852104)"
825,Odessa,Ukraine,6,46.4846583,30.732564,"(46.4846583, 30.732564)"
826,Oeiras,Portugal,1,38.7124971,-9.27130038240727,"(38.7124971, -9.27130038240727)"
827,Offenbach,Germany,3,50.1055002,8.7610698,"(50.1055002, 8.7610698)"
828,Oita,Japan,5,33.1819875,131.4270217,"(33.1819875, 131.4270217)"
829,Olhao,Portugal,1,37.0646248,-7.81120386971734,"(37.0646248, -7.81120386971734)"
830,Oliva,Spain,2,38.9201993,-0.1209744,"(38.9201993, -0.1209744)"
831,Olmaliq,Uzbekistan,1,40.865737,69.593661,"(40.865737, 69.593661)"
832,Olomouc,Czech Republic,7,49.5940567,17.251143,"(49.5940567, 17.251143)"
833,Omdurman,Sudan,25,15.6445536,32.4777311,"(15.6445536, 32.4777311)"
834,Oran,Algeria,3,35.7032751,-0.6492976,"(35.7032751, -0.6492976)"
835,Oranjestad,Aruba,11,12.5268736,-70.0356845,"(12.5268736, -70.0356845)"
836,Orapa,Botswana,1,-21.3387109,25.3607918,"(-21.3387109, 25.3607918)"
837,Orlando,USA,7,28.5423999,-81.3794368,"(28.5423999, -81.3794368)"
838,Osaka,Japan,10,34.704365,135.501887,"(34.704365, 135.501887)"
839,Osijek,Croatia,7,45.5548893,18.6954077,"(45.5548893, 18.6954077)"
840,Oslo,Norway,73,59.9132694,10.7391112,"(59.9132694, 10.7391112)"
841,Osorno,Chile,1,-40.5733223,-73.1359011,"(-40.5733223, -73.1359011)"
842,Ostrava,Czech Republic,2,49.8349139,18.2820084,"(49.8349139, 18.2820084)"
843,Ostrowiec,Poland,2,51.8911732,20.9992523,"(51.8911732, 20.9992523)"
844,Ouagadougou,Burkina Faso,45,12.368148,-1.527085,"(12.368148, -1.527085)"
845,Oviedo,Spain,2,43.3533424,-5.87951433952683,"(43.3533424, -5.87951433952683)"
846,Oxnard,USA,1,34.1976308,-119.1803818,"(34.1976308, -119.1803818)"
847,Oyem,Gabon,7,1.5985463,11.5743279,"(1.5985463, 11.5743279)"
848,Pachuca,Mexico,1,20.1165413,-98.7413535,"(20.1165413, -98.7413535)"
849,Padova,Italy,1,45.4077172,11.8734455,"(45.4077172, 11.8734455)"
850,Pak Kret,Thailand,1,13.9121482,100.4976044,"(13.9121482, 100.4976044)"
851,Palembang,Indonesia,4,-2.9888297,104.756857,"(-2.9888297, 104.756857)"
852,Palermo,Italy,10,38.1112268,13.3524434,"(38.1112268, 13.3524434)"
853,Palma de Mallorca,Spain,3,39.5695818,2.6500745,"(39.5695818, 2.6500745)"
854,Panama City,Panama,111,8.9714493,-79.5341802,"(8.9714493, -79.5341802)"
855,Paola,Malta,3,35.8717994,14.5073748,"(35.8717994, 14.5073748)"
856,Papeete,Tahiti,9,-17.54109245,-149.571802317087,"(-17.54109245, -149.571802317087)"
857,Paphos,Cyprus,2,34.9169592,32.4982122742881,"(34.9169592, 32.4982122742881)"
858,Paralimni,Cyprus,2,35.0391339,33.9827919,"(35.0391339, 33.9827919)"
859,Paramaribo,Suriname,28,5.8216198,-55.1771974,"(5.8216198, -55.1771974)"
860,Paris,France,112,48.8566101,2.3514992,"(48.8566101, 2.3514992)"
861,Parma,Italy,3,44.8013678,10.3280833,"(44.8013678, 10.3280833)"
862,Parnu,Estonia,1,58.3800572,24.5200466,"(58.3800572, 24.5200466)"
863,Paroi,Malaysia,3,2.7266423,101.9810115,"(2.7266423, 101.9810115)"
864,Parramatta,Australia,1,-33.80698555,151.021291968923,"(-33.80698555, 151.021291968923)"
865,Pasadena,USA,10,34.1476452,-118.1444779,"(34.1476452, -118.1444779)"
866,Patras,Greece,1,38.246242,21.7350847,"(38.246242, 21.7350847)"
867,Paynesville,Liberia,6,6.26752,-10.70908,"(6.26752, -10.70908)"
868,Penang,Malaysia,1,5.4065013,100.2559077,"(5.4065013, 100.2559077)"
869,Penrith,Australia,1,-33.7510792,150.6941684,"(-33.7510792, 150.6941684)"
870,Peralada,Spain,1,42.3085047,3.0089916,"(42.3085047, 3.0089916)"
871,Pereira,Colombia,1,4.8142912,-75.6946451,"(4.8142912, -75.6946451)"
872,Perivolia,Greece,1,37.4128052,21.849449,"(37.4128052, 21.849449)"
873,Pernis,Netherlands,1,51.8835293,4.39489413782817,"(51.8835293, 4.39489413782817)"
874,Perth,Australia,3,-31.9527121,115.8604796,"(-31.9527121, 115.8604796)"
875,Pescara,Italy,2,42.4646033,14.2139199,"(42.4646033, 14.2139199)"
876,Peshawar,Pakistan,1,34.0123846,71.5787458,"(34.0123846, 71.5787458)"
877,Petach Tikwa,Israel,1,32.0877639,34.8859985,"(32.0877639, 34.8859985)"
878,Petaling Jaya,Malaysia,14,3.1055929,101.642697,"(3.1055929, 101.642697)"
879,Phangnga,Thailand,1,8.5058295,98.5680335,"(8.5058295, 98.5680335)"
880,Philadelphia,USA,10,39.9524152,-75.1635755,"(39.9524152, -75.1635755)"
881,Phnom penh,Cambodia,44,11.568271,104.9224426,"(11.568271, 104.9224426)"
882,Phoenix,USA,5,33.4485866,-112.0773456,"(33.4485866, -112.0773456)"
883,Phokeng,South Africa,23,-25.575404,27.156484,"(-25.575404, 27.156484)"
884,Phuket,Thailand,13,7.9366015,98.3529292,"(7.9366015, 98.3529292)"
885,Piatra Neamt,Romania,4,46.9319894,26.3695046,"(46.9319894, 26.3695046)"
886,Pikine,Senegal,2,14.751544,-17.396413,"(14.751544, -17.396413)"
887,Pinang,Malaysia,1,5.4065013,100.2559077,"(5.4065013, 100.2559077)"
888,Piraeus,Greece,41,37.9440078,23.6483599,"(37.9440078, 23.6483599)"
889,Pisa,Italy,1,43.7159395,10.4018624,"(43.7159395, 10.4018624)"
890,Piura,Peru,3,-5.1949018,-80.6323,"(-5.1949018, -80.6323)"
891,Plock,Poland,2,52.5353471,19.7136301805999,"(52.5353471, 19.7136301805999)"
892,Ploesti,Romania,3,45.9852129,24.6859225,"(45.9852129, 24.6859225)"
893,Ploiești,Romania,1,44.9417468,26.0236504,"(44.9417468, 26.0236504)"
894,Plymouth,Montserrat,1,16.7053047,-62.2130447,"(16.7053047, -62.2130447)"
895,Plzen,Czech Republic,4,49.7477415,13.3775249,"(49.7477415, 13.3775249)"
896,Podgorica,Montenegro,44,42.4415238,19.2621081,"(42.4415238, 19.2621081)"
897,Pointe-Noire,Congo,9,-4.7485355,11.8523109,"(-4.7485355, 11.8523109)"
898,Pokhara,Nepal,4,28.209538,83.991402,"(28.209538, 83.991402)"
899,Polokwane,South Africa,34,-23.9058333,29.4613889,"(-23.9058333, 29.4613889)"
900,Ponta Delgada,Portugal,1,37.8216423,-25.7253306667582,"(37.8216423, -25.7253306667582)"
901,Pontevedra,Spain,1,42.36226445,-8.53350407214213,"(42.36226445, -8.53350407214213)"
902,Port Elizabeth,South Africa,21,-33.9617051,25.6207519,"(-33.9617051, 25.6207519)"
903,Port Harcourt,Nigeria,7,4.7676576,7.0188527,"(4.7676576, 7.0188527)"
904,Port Louis,Mauritius,1,-20.1637281,57.5045331,"(-20.1637281, 57.5045331)"
905,Port Moresby,Papua New Guinea,16,-9.4743301,147.1599504,"(-9.4743301, 147.1599504)"
906,Port Said,Egypt,12,31.263235,32.305505,"(31.263235, 32.305505)"
907,Port Vila,Vanuatu,22,-17.7414972,168.3150163,"(-17.7414972, 168.3150163)"
908,Port of Spain,Trinidad and Tobago,58,10.6572678,-61.5180173,"(10.6572678, -61.5180173)"
909,Port-Gentil,Gabon,9,-0.7149116,8.7797434,"(-0.7149116, 8.7797434)"
910,Port-au-Prince,Haiti,26,18.547327,-72.3395928,"(18.547327, -72.3395928)"
911,Portimao,Portugal,1,37.19420955,-8.58557739516834,"(37.19420955, -8.58557739516834)"
912,Portland,USA,2,45.5202471,-122.6741949,"(45.5202471, -122.6741949)"
913,Porto,Portugal,19,41.1494512,-8.6107884,"(41.1494512, -8.6107884)"
914,Porto Alegre,Brazil,9,-30.0324999,-51.2303767,"(-30.0324999, -51.2303767)"
915,Porto Novo,Benin,5,6.4990718,2.6253361,"(6.4990718, 2.6253361)"
916,Portoviejo,Ecuador,1,-1.0529517,-80.4533134,"(-1.0529517, -80.4533134)"
917,Posen,Poland,1,52.4006522,16.9197520238885,"(52.4006522, 16.9197520238885)"
918,Poznan,Poland,9,52.4006522,16.9197520238885,"(52.4006522, 16.9197520238885)"
919,Poznań,Poland,1,52.4006522,16.9197520238885,"(52.4006522, 16.9197520238885)"
920,Prague,Czech Republic,35,50.0874654,14.4212535,"(50.0874654, 14.4212535)"
921,Praia,Cape Verde,34,14.9160169,-23.5096132,"(14.9160169, -23.5096132)"
922,Praslin,Seychelles,3,-4.32507085,55.7356081726632,"(-4.32507085, 55.7356081726632)"
923,Pretoria,South Africa,14,-25.7459374,28.1879444,"(-25.7459374, 28.1879444)"
924,Prilep,Macedonia,2,41.3455945,21.5538227,"(41.3455945, 21.5538227)"
925,Pristina,Kosovo,2,42.6638771,21.1640849,"(42.6638771, 21.1640849)"
926,Prospect,Bermuda,5,32.2993065,-64.7650211,"(32.2993065, -64.7650211)"
927,Providence,Guyana,6,6.7623183,-58.1781839,"(6.7623183, -58.1781839)"
928,Providenciales,Turks and Caicos Islands,3,21.8019745,-72.3003559387469,"(21.8019745, -72.3003559387469)"
929,Puchov,Slovakia,1,49.123928,18.3239559,"(49.123928, 18.3239559)"
930,Puebla,Mexico,1,18.833333,-98.0,"(18.833333, -98.0)"
931,Puerto La Cruz,Venezuela,17,10.205417,-64.632211,"(10.205417, -64.632211)"
932,Puerto Ordaz,Venezuela,12,8.27509,-62.7556955,"(8.27509, -62.7556955)"
933,Puerto Rico,Puerto Rico,1,18.22141715,-66.4132818505648,"(18.22141715, -66.4132818505648)"
934,Pula,Croatia,2,44.8696242,13.8455452,"(44.8696242, 13.8455452)"
935,Pune,India,4,18.5203062,73.8543185,"(18.5203062, 73.8543185)"
936,Pyongyang,North Korea,24,39.0194741,125.753388,"(39.0194741, 125.753388)"
937,Qarshi,Uzbekistan,1,38.83998,65.7927948,"(38.83998, 65.7927948)"
938,Qingdao,China,1,36.0895093,120.3497193,"(36.0895093, 120.3497193)"
939,Qinhuangdao,China,3,39.9395724,119.5894129,"(39.9395724, 119.5894129)"
940,Queluz,Portugal,1,38.7549578,-9.25724478121169,"(38.7549578, -9.25724478121169)"
941,Queretaro,Mexico,2,20.8542575,-99.84756,"(20.8542575, -99.84756)"
942,Quesada,Costa Rica,1,10.34477545,-84.4174700186431,"(10.34477545, -84.4174700186431)"
943,Quetta,Pakistan,2,30.1891852,67.0184433,"(30.1891852, 67.0184433)"
944,Quito,Ecuador,44,-0.2201641,-78.5123274,"(-0.2201641, -78.5123274)"
945,Qurghonteppa,Tajikistan,1,37.8357217,68.7820957,"(37.8357217, 68.7820957)"
946,Rabat,Morocco,30,34.022405,-6.834543,"(34.022405, -6.834543)"
947,Rades,Tunisia,67,36.77595335,10.280169744974,"(36.77595335, 10.280169744974)"
948,Rajshahi,Bangladesh,1,24.4611511,88.6888703,"(24.4611511, 88.6888703)"
949,Rakvere,Estonia,1,59.34482805,26.3622181930893,"(59.34482805, 26.3622181930893)"
950,Ramat Gan,Israel,11,32.0686867,34.8246812,"(32.0686867, 34.8246812)"
951,Rancagua,Chile,5,-34.170249,-70.7407427,"(-34.170249, -70.7407427)"
952,Ras al-Khaimah,United Arab Emirates,1,25.737639,55.9078016297259,"(25.737639, 55.9078016297259)"
953,Razgrad,Bulgaria,1,43.5258211,26.5230603,"(43.5258211, 26.5230603)"
954,Reading,England,1,51.456659,-0.9696512,"(51.456659, -0.9696512)"
955,Recife,Brazil,11,-8.0641931,-34.8781517,"(-8.0641931, -34.8781517)"
956,Reggio Calabria,Italy,1,38.1035389,15.6397556,"(38.1035389, 15.6397556)"
957,Reggio Emilia,Italy,1,44.6978446,10.6304958,"(44.6978446, 10.6304958)"
958,Reims,France,1,49.2577886,4.031926,"(49.2577886, 4.031926)"
959,Rennes,France,3,48.1113387,-1.6800198,"(48.1113387, -1.6800198)"
960,Resistencia,Argentina,1,-27.4511235,-58.9865196,"(-27.4511235, -58.9865196)"
961,Reutlingen,Germany,2,48.4919508,9.2114144,"(48.4919508, 9.2114144)"
962,Reykjavik,Iceland,52,64.145981,-21.9422367,"(64.145981, -21.9422367)"
963,Reykjavík,Iceland,2,64.145981,-21.9422367,"(64.145981, -21.9422367)"
964,Richmond,USA,1,37.5385087,-77.43428,"(37.5385087, -77.43428)"
965,Rieti,Italy,1,42.4016906,12.8629993,"(42.4016906, 12.8629993)"
966,Riffa,Bahrain,16,26.1315261,50.5503431,"(26.1315261, 50.5503431)"
967,Rifu,Japan,1,38.3301406,140.9753442,"(38.3301406, 140.9753442)"
968,Riga,Latvia,55,56.9493977,24.1051846,"(56.9493977, 24.1051846)"
969,Rijeka,Croatia,8,45.3269357,14.4409841,"(45.3269357, 14.4409841)"
970,Rio de Janeiro,Brazil,16,-22.9110137,-43.2093727,"(-22.9110137, -43.2093727)"
971,Ritzing,Austria,2,47.6108366,16.4971048,"(47.6108366, 16.4971048)"
972,Riviere-Pilote,Martinique,1,14.4663867,-60.9110992,"(14.4663867, -60.9110992)"
973,Riyadh,Saudi Arabia,56,24.6319692,46.7150648,"(24.6319692, 46.7150648)"
974,Road Town,British Virgin Islands,6,18.4257128,-64.6232227,"(18.4257128, -64.6232227)"
975,Roche Caiman,Seychelles,16,-4.63405165,55.467941,"(-4.63405165, 55.467941)"
976,Rohrbach an der Lafnitz,Austria,1,47.3881527,15.9920125,"(47.3881527, 15.9920125)"
977,Rome,Italy,6,41.8933203,12.4829321,"(41.8933203, 12.4829321)"
978,Roodepoort,South Africa,2,-26.1563889,27.8858333,"(-26.1563889, 27.8858333)"
979,Rosario,Argentina,1,-32.9595004,-60.6615415,"(-32.9595004, -60.6615415)"
980,Roseau,Dominica,15,15.2991923,-61.3872868,"(15.2991923, -61.3872868)"
981,Rostock,Germany,1,54.0924445,12.1286127,"(54.0924445, 12.1286127)"
982,Rostov-On-Don,Russia,1,47.2249135,39.7022756,"(47.2249135, 39.7022756)"
983,Rostov-on-Don,Russia,5,47.2249135,39.7022756,"(47.2249135, 39.7022756)"
984,Rotterdam,Netherlands,22,51.92779805,4.48862326925829,"(51.92779805, 4.48862326925829)"
985,Rouen,France,12,49.4404591,1.0939658,"(49.4404591, 1.0939658)"
986,Rustenburg,South Africa,21,-25.665655,27.241448,"(-25.665655, 27.241448)"
987,Sabanalarga,Dominican Republic,1,19.0974031,-70.3028026,"(19.0974031, -70.3028026)"
988,Saida,Algeria,10,34.743349,0.244076362780846,"(34.743349, 0.244076362780846)"
989,Saida,Lebanon,2,33.5614232,35.3766095,"(33.5614232, 35.3766095)"
990,Saint John,Antigua and Barbuda,9,17.1184569,-61.8448509,"(17.1184569, -61.8448509)"
991,Saint Johns,Antigua and Barbuda,19,17.1184569,-61.8448509,"(17.1184569, -61.8448509)"
992,Saint-Andru,Reunion,3,-21.1309332,55.5265771,"(-21.1309332, 55.5265771)"
993,Saint-Benoit,Reunion,2,-21.13071845,55.5364584940597,"(-21.13071845, 55.5364584940597)"
994,Saint-Gratien,France,1,48.9687747,2.2846647,"(48.9687747, 2.2846647)"
995,Saint-Leu-La-Forêt,France,1,49.0212001,2.2480799,"(49.0212001, 2.2480799)"
996,Saint-Marc,Haiti,2,19.1020269,-72.699511,"(19.1020269, -72.699511)"
997,Saint-Martin,Sint Maarten,1,18.06477605,-63.0492159615281,"(18.06477605, -63.0492159615281)"
998,Saint-Pierre,Reunion,1,-21.341298,55.4776174,"(-21.341298, 55.4776174)"
999,Sainte-Maxime,France,1,43.30871,6.637714,"(43.30871, 6.637714)"
1000,Saitama,Japan,33,35.9754168,139.4160114,"(35.9754168, 139.4160114)"
1001,Salalah,Oman,2,17.0149036,54.0956972,"(17.0149036, 54.0956972)"
1002,Salamanca,Spain,2,40.9651572,-5.6640182,"(40.9651572, -5.6640182)"
1003,Salerno,Italy,1,40.6801561,14.7596754,"(40.6801561, 14.7596754)"
1004,Salt Lake City,USA,1,40.7670126,-111.8904308,"(40.7670126, -111.8904308)"
1005,Salta,Argentina,2,-25.1076701,-64.3494964,"(-25.1076701, -64.3494964)"
1006,Salu,Morocco,4,31.1728192,-7.3366043,"(31.1728192, -7.3366043)"
1007,Salvador,Brazil,12,-12.9822499,-38.4812772,"(-12.9822499, -38.4812772)"
1008,Saly,Senegal,1,13.873417,-14.8918392,"(13.873417, -14.8918392)"
1009,Salzburg,Austria,10,47.7981346,13.0464806,"(47.7981346, 13.0464806)"
1010,Samara,Russia,6,53.198627,50.113987,"(53.198627, 50.113987)"
1011,Samut Sakhon,Cambodia,1,13.5066394,104.869423,"(13.5066394, 104.869423)"
1012,San Antonio,USA,6,29.4246002,-98.4951405,"(29.4246002, -98.4951405)"
1013,San Carlos,Costa Rica,1,10.6204181,-84.4257466790484,"(10.6204181, -84.4257466790484)"
1014,San Cristobal,Dominican Republic,1,18.4174531,-70.1103346,"(18.4174531, -70.1103346)"
1015,San Cristobal,Venezuela,26,7.7756663,-72.2214154,"(7.7756663, -72.2214154)"
1016,San Diego,USA,12,32.7174209,-117.1627714,"(32.7174209, -117.1627714)"
1017,San Fernando,Trinidad and Tobago,1,10.2807069,-61.4645896,"(10.2807069, -61.4645896)"
1018,San Francisco,USA,8,37.7792808,-122.4192363,"(37.7792808, -122.4192363)"
1019,San Ignacio,Belize,1,17.1501695,-89.0748135363268,"(17.1501695, -89.0748135363268)"
1020,San Jose,Costa Rica,67,9.9325427,-84.0795782,"(9.9325427, -84.0795782)"
1021,San Jose (GUA),Guatemala,1,12.1538828,-86.2815347079251,"(12.1538828, -86.2815347079251)"
1022,San Jose (usa),USA,3,37.3361905,-121.8905833,"(37.3361905, -121.8905833)"
1023,San José,Costa Rica,1,9.9325427,-84.0795782,"(9.9325427, -84.0795782)"
1024,San Juan,Argentina,2,-47.1860304,-66.3107613033437,"(-47.1860304, -66.3107613033437)"
1025,San Juan,Puerto Rico,4,18.38423905,-66.0534399736473,"(18.38423905, -66.0534399736473)"
1026,San Luis Potosi,Mexico,3,22.5000001,-100.5000001,"(22.5000001, -100.5000001)"
1027,San Nicolas de los Garza,Mexico,1,25.73584235,-100.266494516522,"(25.73584235, -100.266494516522)"
1028,San Pedro Alcántara,Spain,2,39.36896815,-7.29620886704055,"(39.36896815, -7.29620886704055)"
1029,San Pedro Sula,Honduras,44,15.49479015,-88.067138609666,"(15.49479015, -88.067138609666)"
1030,San Pedro del Pinatar,Spain,1,37.8353328,-0.7916121,"(37.8353328, -0.7916121)"
1031,San Salvador,El Salvador,52,13.6989939,-89.1914249,"(13.6989939, -89.1914249)"
1032,SanaA,Yemen,39,15.342101,44.2005197,"(15.342101, 44.2005197)"
1033,Sandy,USA,6,40.572851,-111.833449631627,"(40.572851, -111.833449631627)"
1034,Sankt Pölten,Austria,1,48.2043985,15.6229118,"(48.2043985, 15.6229118)"
1035,Sant Julia de Loria,Andorra,1,42.46671695,1.49634497744565,"(42.46671695, 1.49634497744565)"
1036,Santa Ana,Guatemala,1,14.9264495,-92.134625,"(14.9264495, -92.134625)"
1037,Santa Clara,USA,7,37.3541132,-121.9551744,"(37.3541132, -121.9551744)"
1038,Santa Cruz,Bolivia,9,-11.0382003,-68.9218484,"(-11.0382003, -68.9218484)"
1039,Santa Fe,Argentina,5,-31.6186951,-60.7019561,"(-31.6186951, -60.7019561)"
1040,Santander,Spain,3,43.4623102,-3.8101067,"(43.4623102, -3.8101067)"
1041,Santiago de Chile,Chile,53,-33.4377968,-70.6504451,"(-33.4377968, -70.6504451)"
1042,Santiago de Los Caballeros,Dominican Republic,3,19.4502926,-70.6906112,"(19.4502926, -70.6906112)"
1043,Santo Domingo,Dominican Republic,7,18.4801972,-69.942111,"(18.4801972, -69.942111)"
1044,Sao Joao da Venda,Portugal,10,37.0754499,-7.9800738,"(37.0754499, -7.9800738)"
1045,Sao Paulo,Brazil,16,-23.5506507,-46.6333824,"(-23.5506507, -46.6333824)"
1046,Sao Tome,Sao Tome and Principe,11,0.3389242,6.7313031,"(0.3389242, 6.7313031)"
1047,Sapporo,Japan,5,43.044768,141.337215,"(43.044768, 141.337215)"
1048,Sarajevo,Bosnia and Herzegovina,15,43.8519774,18.3866868,"(43.8519774, 18.3866868)"
1049,Saransk,Russia,4,54.18671,45.18383,"(54.18671, 45.18383)"
1050,Sauteurs,Grenada,4,12.2251172,-61.6379798,"(12.2251172, -61.6379798)"
1051,Scarborough,Trinidad and Tobago,2,11.1852893,-60.735024,"(11.1852893, -60.735024)"
1052,Schwaz,Austria,2,47.3449529,11.7084253,"(47.3449529, 11.7084253)"
1053,Schwechat,Austria,1,48.1397436,16.4780312,"(48.1397436, 16.4780312)"
1054,Seattle,USA,17,47.6038321,-122.3300624,"(47.6038321, -122.3300624)"
1055,Secunda,South Africa,8,-26.516111,29.202778,"(-26.516111, 29.202778)"
1056,Sedan,Belgium,1,49.7822737,5.03733,"(49.7822737, 5.03733)"
1057,Seeb,Oman,2,23.6728758,58.1750021653132,"(23.6728758, 58.1750021653132)"
1058,Seekirchen,Austria,1,47.8942481,13.1260778,"(47.8942481, 13.1260778)"
1059,Segou,Mali,1,13.441518,-6.268147,"(13.441518, -6.268147)"
1060,Seixal,Portugal,1,38.6422246,-9.1072662,"(38.6422246, -9.1072662)"
1061,Sekondi,Ghana,8,4.937,-1.7127928,"(4.937, -1.7127928)"
1062,Selayang,Malaysia,1,3.2590341,101.6545901,"(3.2590341, 101.6545901)"
1063,Selibe-Phikwe,Botswana,2,-21.9757811,27.8373722,"(-21.9757811, 27.8373722)"
1064,Sendai,Japan,1,38.2677554,140.8691498,"(38.2677554, 140.8691498)"
1065,Senec,Slovakia,1,48.2199473,17.3969901,"(48.2199473, 17.3969901)"
1066,Senlis,Burkina Faso,1,12.0753083,-1.6880314,"(12.0753083, -1.6880314)"
1067,Seoul,South Korea,60,37.5666791,126.9782914,"(37.5666791, 126.9782914)"
1068,Seremban,Malaysia,2,2.7247562,101.9344913,"(2.7247562, 101.9344913)"
1069,Serowe,Botswana,1,-22.39776,26.703289,"(-22.39776, 26.703289)"
1070,Serravalle,San Marino,46,43.9699026,12.4802946,"(43.9699026, 12.4802946)"
1071,Seville,Spain,6,37.3886303,-5.9953171,"(37.3886303, -5.9953171)"
1072,Sfax,Tunisia,10,34.739739,10.7598516,"(34.739739, 10.7598516)"
1073,Shah Alam,Malaysia,14,3.05650145,101.525085119032,"(3.05650145, 101.525085119032)"
1074,Shanghai,China,7,31.2253441,121.4888922,"(31.2253441, 121.4888922)"
1075,Sharjah,United Arab Emirates,12,25.3585432,55.3895321,"(25.3585432, 55.3895321)"
1076,Shenyang,China,4,41.8045293,123.4277858,"(41.8045293, 123.4277858)"
1077,Shenzhen,China,5,22.5445697,114.0545346,"(22.5445697, 114.0545346)"
1078,Shizuoka,Japan,5,34.8566552,138.4855544,"(34.8566552, 138.4855544)"
1079,Shkoder,Albania,12,42.066915,19.5132093,"(42.066915, 19.5132093)"
1080,Shymkent,Kazakhstan,6,42.2940788,69.6385235157434,"(42.2940788, 69.6385235157434)"
1081,Sibenik,Croatia,1,43.7331716,15.9002171,"(43.7331716, 15.9002171)"
1082,Sidi Moussa,Algeria,1,36.6062538,3.0881462,"(36.6062538, 3.0881462)"
1083,Sidoarjo,Indonesia,3,-7.4567712,112.7126786,"(-7.4567712, 112.7126786)"
1084,Sidon,Lebanon,2,33.5614232,35.3766095,"(33.5614232, 35.3766095)"
1085,Siena,Italy,1,43.3185536,11.3316533,"(43.3185536, 11.3316533)"
1086,Siliguri,India,3,26.7164127,88.4309916,"(26.7164127, 88.4309916)"
1087,Singapore,Singapore,100,1.3408528,103.878446863736,"(1.3408528, 103.878446863736)"
1088,Sinsheim,Germany,1,49.2553,8.87722,"(49.2553, 8.87722)"
1089,Sion,Suisse,3,46.23021515,7.3637051847832,"(46.23021515, 7.3637051847832)"
1090,Sittard,Netherlands,2,51.0051105,5.86947362636541,"(51.0051105, 5.86947362636541)"
1091,Skopje,Macedonia,59,41.9960924,21.4316495,"(41.9960924, 21.4316495)"
1092,Sochaux,France,1,47.5138206,6.8303896,"(47.5138206, 6.8303896)"
1093,Sochi,Russia,11,43.5854823,39.723109,"(43.5854823, 39.723109)"
1094,Sofia,Bulgaria,51,42.6978634,23.3221789,"(42.6978634, 23.3221789)"
1095,Sohar,Oman,1,24.3445577,56.7424766,"(24.3445577, 56.7424766)"
1096,Solna,Sweden,57,59.3697845,18.010360200085,"(59.3697845, 18.010360200085)"
1097,Songo,Mozambique,1,-15.5951011,32.7749575,"(-15.5951011, 32.7749575)"
1098,Sousse,Tunisia,11,35.828829,10.640525,"(35.828829, 10.640525)"
1099,Split,Croatia,8,43.5115555,16.4396801,"(43.5115555, 16.4396801)"
1100,St Petersburg,Russia,1,59.938732,30.316229,"(59.938732, 30.316229)"
1101,St. Etienne,France,11,45.4401467,4.3873058,"(45.4401467, 4.3873058)"
1102,St. Gall,Suisse,13,47.4250593,9.3765878,"(47.4250593, 9.3765878)"
1103,St. Gallen,Suisse,2,47.4250593,9.3765878,"(47.4250593, 9.3765878)"
1104,St. Georges,Grenada,37,12.0535331,-61.751805,"(12.0535331, -61.751805)"
1105,St. John's,Antigua and Barbuda,1,17.1184569,-61.8448509,"(17.1184569, -61.8448509)"
1106,St. Johns,Canada,23,47.561701,-52.715149,"(47.561701, -52.715149)"
1107,St. Louis,USA,3,38.6272733,-90.1978889,"(38.6272733, -90.1978889)"
1108,St. Petersburg,Russia,19,59.938732,30.316229,"(59.938732, 30.316229)"
1109,St. Poelten,Austria,2,48.2043985,15.6229118,"(48.2043985, 15.6229118)"
1110,St. Veit An Der Glan,Austria,1,46.7672814,14.3576981,"(46.7672814, 14.3576981)"
1111,Stavanger,Norway,1,58.9680427,5.7324722,"(58.9680427, 5.7324722)"
1112,Strovolos,Cyprus,1,35.1327263,33.3474234934308,"(35.1327263, 33.3474234934308)"
1113,Strumica,Macedonia,3,41.4392045,22.6397203,"(41.4392045, 22.6397203)"
1114,Stuttgart,Germany,11,48.7784485,9.1800132,"(48.7784485, 9.1800132)"
1115,Suita,Japan,2,34.764884,135.51735,"(34.764884, 135.51735)"
1116,Sunderland,England,2,54.9063791,-1.375053,"(54.9063791, -1.375053)"
1117,Sunrise,USA,1,26.1482449,-80.3288859410087,"(26.1482449, -80.3288859410087)"
1118,Sur,Oman,1,22.5701594,59.529892,"(22.5701594, 59.529892)"
1119,Surabaya,Indonesia,5,-7.2459717,112.7378266,"(-7.2459717, 112.7378266)"
1120,Surakarta,Indonesia,4,-7.5692462,110.828448,"(-7.5692462, 110.828448)"
1121,Suva,Fiji,11,-18.1415884,178.4421662,"(-18.1415884, 178.4421662)"
1122,Suwon,South Korea,11,37.2633325,127.0287472,"(37.2633325, 127.0287472)"
1123,Suzhou,China,1,31.3016935,120.5810725,"(31.3016935, 120.5810725)"
1124,Swansea,Wales,7,51.6211442,-3.9467751,"(51.6211442, -3.9467751)"
1125,Sydney,Australia,31,-33.8548157,151.2164539,"(-33.8548157, 151.2164539)"
1126,Szczecin,Poland,3,53.4296829,14.5929080912052,"(53.4296829, 14.5929080912052)"
1127,Szekesfehervar,Hungary,4,47.1910169,18.410811,"(47.1910169, 18.410811)"
1128,Tabarka,Tunisia,1,36.954975,8.758196,"(36.954975, 8.758196)"
1129,Tacna,Peru,6,-18.0138696,-70.2511597,"(-18.0138696, -70.2511597)"
1130,Taif,Saudi Arabia,4,21.270278,40.415833,"(21.270278, 40.415833)"
1131,Taipa,Macau,7,22.15259475,113.55834288349,"(22.15259475, 113.55834288349)"
1132,Taipei,Taiwan,47,25.0375198,121.5636796,"(25.0375198, 121.5636796)"
1133,Talca,Chile,2,-35.4271948,-71.6558934,"(-35.4271948, -71.6558934)"
1134,Tallinn,Estonia,89,59.4372155,24.7453688,"(59.4372155, 24.7453688)"
1135,Tamale,Ghana,10,9.4043366,-0.8430289,"(9.4043366, -0.8430289)"
1136,Tammerfors,Finland,2,61.4980214,23.7603118,"(61.4980214, 23.7603118)"
1137,Tampa,USA,7,27.9477595,-82.458444,"(27.9477595, -82.458444)"
1138,Tampere,Finland,10,61.4980214,23.7603118,"(61.4980214, 23.7603118)"
1139,Tanger,Morocco,11,35.777103,-5.803792,"(35.777103, -5.803792)"
1140,Tartu,Estonia,2,58.3727059,26.7237528,"(58.3727059, 26.7237528)"
1141,Tashkent,Uzbekistan,62,41.3123363,69.2787079,"(41.3123363, 69.2787079)"
1142,Tbilisi,Georgia,58,41.6935247,44.8015019,"(41.6935247, 44.8015019)"
1143,Tegucigalpa,Honduras,24,14.0931919,-87.2012631,"(14.0931919, -87.2012631)"
1144,Teheran,Iran,1,35.7006177,51.401375,"(35.7006177, 51.401375)"
1145,Tehran,Iran,108,35.7006177,51.401375,"(35.7006177, 51.401375)"
1146,Tel Aviv,Israel,28,32.0804808,34.7805274,"(32.0804808, 34.7805274)"
1147,Temuco,Chile,5,-38.7362442,-72.5905979,"(-38.7362442, -72.5905979)"
1148,Teplice,Czech Republic,9,50.6406644,13.8244461,"(50.6406644, 13.8244461)"
1149,The Valley,Anguilla,5,18.2145861,-63.0517759,"(18.2145861, -63.0517759)"
1150,Thessaloniki,Greece,2,40.6403167,22.9352716,"(40.6403167, 22.9352716)"
1151,Thimphu,Bhutan,13,27.4727617,89.629548,"(27.4727617, 89.629548)"
1152,Thu Dau Mot,Vietnam,1,10.9808435,106.6537483,"(10.9808435, 106.6537483)"
1153,Thun,Suisse,1,46.7582827,7.628086,"(46.7582827, 7.628086)"
1154,Tianjin,China,10,39.1235635,117.1980785,"(39.1235635, 117.1980785)"
1155,Timisoara,Romania,2,45.75888845,21.2214854244305,"(45.75888845, 21.2214854244305)"
1156,Tirana,Albania,48,41.3279457,19.8185323,"(41.3279457, 19.8185323)"
1157,Tiraspol,Moldova,6,46.8516737,29.6349762,"(46.8516737, 29.6349762)"
1158,Toftir,Faroe Islands,13,62.0933824,-6.7363927,"(62.0933824, -6.7363927)"
1159,Tokyo,Japan,27,34.6968642,139.4049033,"(34.6968642, 139.4049033)"
1160,Toluca,Mexico,1,19.292545,-99.6569007,"(19.292545, -99.6569007)"
1161,Toronto,Canada,19,43.653963,-79.387207,"(43.653963, -79.387207)"
1162,Torreon,Mexico,3,25.542698,-103.4105122,"(25.542698, -103.4105122)"
1163,Torshavn,Faroe Islands,29,62.012,-6.768,"(62.012, -6.768)"
1164,Tortola,British Virgin Islands,6,18.4211122,-64.6390272764267,"(18.4211122, -64.6390272764267)"
1165,Toulon,France,2,43.1257311,5.9304919,"(43.1257311, 5.9304919)"
1166,Toulouse,France,6,43.6044622,1.4442469,"(43.6044622, 1.4442469)"
1167,Tours,France,1,47.3900474,0.6889268,"(47.3900474, 0.6889268)"
1168,Toyota,Japan,9,35.15195,137.301478,"(35.15195, 137.301478)"
1169,Trabzon,Turkey,2,41.0058605,39.7180928,"(41.0058605, 39.7180928)"
1170,Tripoli,Libya,44,32.896672,13.1777923,"(32.896672, 13.1777923)"
1171,Trnava,Slovakia,16,48.3767652,17.5858175,"(48.3767652, 17.5858175)"
1172,Troyes,France,1,48.2971626,4.0746257,"(48.2971626, 4.0746257)"
1173,Trujillo,Colombia,3,4.2122451,-76.3186782,"(4.2122451, -76.3186782)"
1174,Trujillo,Peru,1,-8.1117632,-79.0286702,"(-8.1117632, -79.0286702)"
1175,Tucson / Arizona,USA,1,32.2218917,-110.9262353,"(32.2218917, -110.9262353)"
1176,Tunapuna,Trinidad and Tobago,14,10.64464,-61.3916118,"(10.64464, -61.3916118)"
1177,Tunis,Tunisia,19,33.8439408,9.400138,"(33.8439408, 9.400138)"
1178,Turin,Italy,8,45.0677551,7.6824892,"(45.0677551, 7.6824892)"
1179,Turku,Finland,7,60.4517531,22.2670522,"(60.4517531, 22.2670522)"
1180,Tursunzade,Tajikistan,3,38.5128361,68.2347524,"(38.5128361, 68.2347524)"
1181,Tuxtla Gutierrez,Mexico,4,16.74521845,-93.1418086426027,"(16.74521845, -93.1418086426027)"
1182,Tuzla,Bosnia and Herzegovina,1,44.5391105,18.675193,"(44.5391105, 18.675193)"
1183,Udine,Italy,3,46.0634632,13.2358377,"(46.0634632, 13.2358377)"
1184,Uherske Hradiste,Czech Republic,3,49.0681018,17.4663899,"(49.0681018, 17.4663899)"
1185,Ulaanbaatar,Mongolia,7,47.949809,106.966724193881,"(47.949809, 106.966724193881)"
1186,Ulm,Germany,1,48.3973944,9.9932755,"(48.3973944, 9.9932755)"
1187,Ulsan,South Korea,3,35.5487857,129.252024,"(35.5487857, 129.252024)"
1188,Urziceni,Romania,1,47.7338935,22.4044561071076,"(47.7338935, 22.4044561071076)"
1189,Usti nad Labem,Czech Republic,1,50.6684322,14.0408798,"(50.6684322, 14.0408798)"
1190,Utrecht,Netherlands,2,52.08095165,5.12768031549829,"(52.08095165, 5.12768031549829)"
1191,Uyo,Nigeria,7,5.0322447,7.924791,"(5.0322447, 7.924791)"
1192,Uzice,Serbia,1,43.8564957,19.840273,"(43.8564957, 19.840273)"
1193,Vaduz,Liechtenstein,53,47.1392862,9.5227962,"(47.1392862, 9.5227962)"
1194,Valencia,Spain,6,39.4699014,-0.3759513,"(39.4699014, -0.3759513)"
1195,Valenciennes,France,2,50.3594889,3.5266657,"(50.3594889, 3.5266657)"
1196,Valga,Estonia,2,57.77993855,26.0628288576864,"(57.77993855, 26.0628288576864)"
1197,Valladolid,Spain,1,41.6521328,-4.728562,"(41.6521328, -4.728562)"
1198,Valletta,Malta,77,35.8989818,14.5136759,"(35.8989818, 14.5136759)"
1199,Valparaiso,Chile,5,-33.0458456,-71.6196749,"(-33.0458456, -71.6196749)"
1200,Vancouver,Canada,6,49.2608724,-123.1139529,"(49.2608724, -123.1139529)"
1201,Vantaa,Finland,1,60.3091871,25.0364526,"(60.3091871, 25.0364526)"
1202,Varazdin,Croatia,2,46.308029,16.3377904,"(46.308029, 16.3377904)"
1203,Vasteras,Sweden,1,59.6110992,16.5463679,"(59.6110992, 16.5463679)"
1204,Ventspils,Latvia,2,57.3903918,21.5635991,"(57.3903918, 21.5635991)"
1205,Verona,Italy,2,45.4384958,10.9924122,"(45.4384958, 10.9924122)"
1206,Viborg,Denmark,1,56.4469128,9.4059354,"(56.4469128, 9.4059354)"
1207,Victoria (sey),Seychelles,10,-4.6574977,55.4540146,"(-4.6574977, 55.4540146)"
1208,Vienna,Austria,63,48.2083537,16.3725042,"(48.2083537, 16.3725042)"
1209,Vientiane,Laos,42,17.9640988,102.6133707,"(17.9640988, 102.6133707)"
1210,Vieux Fort,St. Lucia,9,13.7277133,-60.9527504,"(13.7277133, -60.9527504)"
1211,Vigo,Spain,1,42.2376602,-8.7247205,"(42.2376602, -8.7247205)"
1212,Vila Real,Portugal,5,41.2966556,-7.74678,"(41.2966556, -7.74678)"
1213,Vila-real,Spain,1,39.9370604,-0.1006825,"(39.9370604, -0.1006825)"
1214,Villach,Austria,4,46.6167284,13.8500268,"(46.6167284, 13.8500268)"
1215,Villarreal,Spain,2,37.5489311,-1.6357404,"(37.5489311, -1.6357404)"
1216,Villeneuve-dAscq,France,8,50.6271588,3.1506621,"(50.6271588, 3.1506621)"
1217,Vilnius,Lithuania,21,54.6870458,25.2829111,"(54.6870458, 25.2829111)"
1218,Vina del Mar,Chile,8,-33.024503,-71.5518119,"(-33.024503, -71.5518119)"
1219,Vinkovci,Croatia,1,45.2878296,18.8005859,"(45.2878296, 18.8005859)"
1220,Viseu,Portugal,1,40.6574713,-7.9138664,"(40.6574713, -7.9138664)"
1221,Visu,Belgium,1,50.6407351,4.66696,"(50.6407351, 4.66696)"
1222,Vittel,France,1,48.2018367,5.9492242,"(48.2018367, 5.9492242)"
1223,Volgograd,Russia,4,48.710678,44.516804,"(48.710678, 44.516804)"
1224,Volos,Greece,1,39.3624382,22.9418905,"(39.3624382, 22.9418905)"
1225,Voronezh,Russia,1,51.6605982,39.2005858,"(51.6605982, 39.2005858)"
1226,Voru,Latvia,2,56.8406494,24.7537645,"(56.8406494, 24.7537645)"
1227,Warri,Nigeria,1,5.517,5.75,"(5.517, 5.75)"
1228,Warsaw,Poland,39,52.2319237,21.0067265,"(52.2319237, 21.0067265)"
1229,Washington,USA,32,38.8949549,-77.0366456,"(38.8949549, -77.0366456)"
1230,Watford,England,2,51.6553875,-0.3957425,"(51.6553875, -0.3957425)"
1231,Wattayah,Oman,2,23.6033716,58.5112616,"(23.6033716, 58.5112616)"
1232,Wattens,Austria,2,47.2935786,11.5907326,"(47.2935786, 11.5907326)"
1233,Wellington,New Zealand,6,-41.2887467,174.7772092,"(-41.2887467, 174.7772092)"
1234,Wels,Austria,1,48.1566957,14.0244047,"(48.1566957, 14.0244047)"
1235,West Bromwich,England,1,52.5186579,-1.9923114,"(52.5186579, -1.9923114)"
1236,West Palm Beach,USA,1,26.7153425,-80.0533746,"(26.7153425, -80.0533746)"
1237,Wiesbaden,Germany,2,50.0833,8.25,"(50.0833, 8.25)"
1238,Willemstad,Curacao,32,12.1091242,-68.9316546,"(12.1091242, -68.9316546)"
1239,Windhoek,Namibia,70,-22.5530386,17.0543787928491,"(-22.5530386, 17.0543787928491)"
1240,Witbank,South Africa,6,-25.8763485,29.2010447,"(-25.8763485, 29.2010447)"
1241,Wolfsburg,Germany,2,52.4205588,10.7861682,"(52.4205588, 10.7861682)"
1242,Wollongong,Australia,1,-34.4243941,150.89385,"(-34.4243941, 150.89385)"
1243,Wrexham,Wales,4,53.0465068,-2.9938137,"(53.0465068, -2.9938137)"
1244,Wroclaw,Poland,13,51.1089776,17.0326689,"(51.1089776, 17.0326689)"
1245,Wronki,Poland,1,52.7101225,16.3742272,"(52.7101225, 16.3742272)"
1246,Wuhan,China,14,30.5960213,114.2992796,"(30.5960213, 114.2992796)"
1247,Wurzburg,Germany,1,49.79245,9.932966,"(49.79245, 9.932966)"
1248,Xian,China,6,34.2660171,108.9424252,"(34.2660171, 108.9424252)"
1249,Yacuba,Bolivia,1,-17.0568696,-64.9912286,"(-17.0568696, -64.9912286)"
1250,Yangon,Myanmar,49,16.7967129,96.1609916,"(16.7967129, 96.1609916)"
1251,Yaounde,Cameroon,39,3.8689867,11.5213344,"(3.8689867, 11.5213344)"
1252,Yerevan,Armenia,53,40.1776121,44.5125849,"(40.1776121, 44.5125849)"
1253,Yogyakarta,Indonesia,3,-7.7981396,110.36771,"(-7.7981396, 110.36771)"
1254,Yokohama,Japan,21,35.444991,139.636768,"(35.444991, 139.636768)"
1255,Yona,Guam,4,13.4096478,144.775992,"(13.4096478, 144.775992)"
1256,Yverdon-les-Bains,Suisse,1,46.7758517,6.64207049119648,"(46.7758517, 6.64207049119648)"
1257,Zagreb,Croatia,41,45.813177,15.977048,"(45.813177, 15.977048)"
1258,Zalaegerszeg,Hungary,2,46.8415803,16.8456316,"(46.8415803, 16.8456316)"
1259,Zanzibar,Tanzania,1,-6.0988563,39.3204591014229,"(-6.0988563, 39.3204591014229)"
1260,Zaragoza,Spain,1,41.84004695,-1.16950900924476,"(41.84004695, -1.16950900924476)"
1261,Zarqa,Jordan,1,32.0668425,36.0885771,"(32.0668425, 36.0885771)"
1262,Zawyan,Libya,1,26.8234472,18.1236723,"(26.8234472, 18.1236723)"
1263,Zell am See,Austria,1,47.3239525,12.7962751,"(47.3239525, 12.7962751)"
1264,Zenica,Bosnia and Herzegovina,39,44.200713,17.9080954,"(44.200713, 17.9080954)"
1265,Zhengzhou,China,1,34.7591877,113.6524076,"(34.7591877, 113.6524076)"
1266,Zhongshan,China,2,24.533333,111.3,"(24.533333, 111.3)"
1267,Zhuhai,China,1,21.9745252,113.931350084859,"(21.9745252, 113.931350084859)"
1268,Zilina,Slovakia,21,49.2234674,18.7393139,"(49.2234674, 18.7393139)"
1269,Zouurate,Mauritania,1,20.2540382,-9.2399263,"(20.2540382, -9.2399263)"
1270,Zurich,Suisse,15,47.3723957,8.5423216,"(47.3723957, 8.5423216)"
1271,Zürich,Suisse,3,47.3723957,8.5423216,"(47.3723957, 8.5423216)"
1272,Évian-les-Bains,France,1,46.400979,6.5897931,"(46.400979, 6.5897931)"
